{
"type": "FeatureCollection",
"name": "points_filtered",
"crs": { "type": "name", "properties": { "name": "urn:ogc:def:crs:OGC:1.3:CRS84" } },
"features": [
{ "type": "Feature", "properties": { "id": "LA", "formatted_address": "Los Angeles, CA, USA", "articles": [ "TRZCBFUVLNFMHDTA5FNN2O3B3Y", "TRZCBFUVLNFMHDTA5FNN2O3B3Y", "TRZCBFUVLNFMHDTA5FNN2O3B3Y", "TRZCBFUVLNFMHDTA5FNN2O3B3Y" ] }, "geometry": { "type": "Point", "coordinates": [ -118.2436849, 34.0522342 ] } },
{ "type": "Feature", "properties": { "id": "The Atmosphere", "formatted_address": "4608 San Fernando Rd, Glendale, CA 91204, United States", "articles": [ "QB5EG7X7W5E2BHVPQ4I6EKH72Q" ] }, "geometry": { "type": "Point", "coordinates": [ -118.2633252, 34.1357001 ] } },
{ "type": "Feature", "properties": { "id": "Northwest Pasadena", "formatted_address": "1020 N Fair Oaks Ave, Pasadena, CA 91103, United States", "articles": [ "4QNANYOTDJEVXK4TINYY4CMXVU" ] }, "geometry": { "type": "Point", "coordinates": [ -118.1501538, 34.1635931 ] } },
{ "type": "Feature", "properties": { "id": "northwest Pasadena", "formatted_address": "1020 N Fair Oaks Ave, Pasadena, CA 91103, United States", "articles": [ "4QNANYOTDJEVXK4TINYY4CMXVU" ] }, "geometry": { "type": "Point", "coordinates": [ -118.1501538, 34.1635931 ] } },
{ "type": "Feature", "properties": { "id": "Lake Ave", "formatted_address": "393 N Lake Ave, Pasadena, CA 91101, United States", "articles": [ "4QNANYOTDJEVXK4TINYY4CMXVU" ] }, "geometry": { "type": "Point", "coordinates": [ -118.1328384, 34.1525569 ] } },
{ "type": "Feature", "properties": { "id": "Lincoln Blvd", "formatted_address": "Lincoln Blvd, California, USA", "articles": [ "4QNANYOTDJEVXK4TINYY4CMXVU" ] }, "geometry": { "type": "Point", "coordinates": [ -118.4478819, 33.9904921 ] } },
{ "type": "Feature", "properties": { "id": "Máquina", "formatted_address": "1274 N Lake Ave UNIT 1, Pasadena, CA 91104, United States", "articles": [ "4QNANYOTDJEVXK4TINYY4CMXVU" ] }, "geometry": { "type": "Point", "coordinates": [ -118.132015, 34.1678833 ] } },
{ "type": "Feature", "properties": { "id": "Rose Bowl", "formatted_address": "1001 Rose Bowl Dr, Pasadena, CA 91103, United States", "articles": [ "4QNANYOTDJEVXK4TINYY4CMXVU" ] }, "geometry": { "type": "Point", "coordinates": [ -118.1676462, 34.1613284 ] } },
{ "type": "Feature", "properties": { "id": "N . Lake Ave . , Pasadena .", "formatted_address": "N Lake Ave, Pasadena, CA, USA", "articles": [ "4QNANYOTDJEVXK4TINYY4CMXVU" ] }, "geometry": { "type": "Point", "coordinates": [ -118.1323296, 34.1665622 ] } },
{ "type": "Feature", "properties": { "id": "Highland Park ' s El Huarache Aztecas", "formatted_address": "5225 York Blvd, Los Angeles, CA 90042, United States", "articles": [ "4QNANYOTDJEVXK4TINYY4CMXVU" ] }, "geometry": { "type": "Point", "coordinates": [ -118.2018118, 34.1206466 ] } },
{ "type": "Feature", "properties": { "id": "Mi Rinconcita Azteca near Orange Grove Blvd .", "formatted_address": "687 N Raymond Ave, Pasadena, CA 91103, United States", "articles": [ "4QNANYOTDJEVXK4TINYY4CMXVU" ] }, "geometry": { "type": "Point", "coordinates": [ -118.1491818, 34.1576678 ] } },
{ "type": "Feature", "properties": { "id": "and Raymond Ave .", "formatted_address": "Raymond Ave, Los Angeles, CA 90044, USA", "articles": [ "4QNANYOTDJEVXK4TINYY4CMXVU" ] }, "geometry": { "type": "Point", "coordinates": [ -118.2980803, 33.9791469 ] } },
{ "type": "Feature", "properties": { "id": "687 N . Raymond Ave . , Pasadena .", "formatted_address": "687 N Raymond Ave, Pasadena, CA 91103, USA", "articles": [ "4QNANYOTDJEVXK4TINYY4CMXVU" ] }, "geometry": { "type": "Point", "coordinates": [ -118.1491827, 34.1576732 ] } },
{ "type": "Feature", "properties": { "id": "and Fair Oaks Ave .", "formatted_address": "Fair Oaks Ave, California, USA", "articles": [ "4QNANYOTDJEVXK4TINYY4CMXVU" ] }, "geometry": { "type": "Point", "coordinates": [ -118.1505537, 34.1548887 ] } },
{ "type": "Feature", "properties": { "id": "951 N . Orange Grove Blvd . , Pasadena .", "formatted_address": "951 N Orange Grove Blvd, Pasadena, CA 91103, USA", "articles": [ "4QNANYOTDJEVXK4TINYY4CMXVU" ] }, "geometry": { "type": "Point", "coordinates": [ -118.1510005, 34.1579346 ] } },
{ "type": "Feature", "properties": { "id": "Vero", "formatted_address": "1234 Wilshire Blvd, Los Angeles, CA 90017, United States", "articles": [ "4QNANYOTDJEVXK4TINYY4CMXVU" ] }, "geometry": { "type": "Point", "coordinates": [ -118.2659037, 34.0532633 ] } },
{ "type": "Feature", "properties": { "id": "Orange Grove Blvd", "formatted_address": "Pasadena, CA 91103, United States", "articles": [ "4QNANYOTDJEVXK4TINYY4CMXVU" ] }, "geometry": { "type": "Point", "coordinates": [ -118.1594804, 34.1523338 ] } },
{ "type": "Feature", "properties": { "id": "' s Restaurant", "formatted_address": "26490 Ynez Rd suite b, Temecula, CA 92591, United States", "articles": [ "4QNANYOTDJEVXK4TINYY4CMXVU" ] }, "geometry": { "type": "Point", "coordinates": [ -117.1551559, 33.51916 ] } },
{ "type": "Feature", "properties": { "id": "654 Lincoln Ave . , Pasadena .", "formatted_address": "654 Lincoln Ave, Pasadena, CA 91103, USA", "articles": [ "4QNANYOTDJEVXK4TINYY4CMXVU" ] }, "geometry": { "type": "Point", "coordinates": [ -118.1548392, 34.1561368 ] } },
{ "type": "Feature", "properties": { "id": "Garfield Ave .", "formatted_address": "Commerce, CA 90040, United States", "articles": [ "4QNANYOTDJEVXK4TINYY4CMXVU" ] }, "geometry": { "type": "Point", "coordinates": [ -118.146493, 33.97428 ] } },
{ "type": "Feature", "properties": { "id": "Baja", "formatted_address": "24022 Alicia Pkwy ste e, Mission Viejo, CA 92691, United States", "articles": [ "4QNANYOTDJEVXK4TINYY4CMXVU" ] }, "geometry": { "type": "Point", "coordinates": [ -117.6796659, 33.6134798 ] } },
{ "type": "Feature", "properties": { "id": "La Estrella", "formatted_address": "940 S Lorena St, Los Angeles, CA 90023, United States", "articles": [ "4QNANYOTDJEVXK4TINYY4CMXVU" ] }, "geometry": { "type": "Point", "coordinates": [ -118.2016066, 34.0264242 ] } },
{ "type": "Feature", "properties": { "id": "Fair Oaks Ave", "formatted_address": "N Fair Oaks Ave, California, USA", "articles": [ "4QNANYOTDJEVXK4TINYY4CMXVU" ] }, "geometry": { "type": "Point", "coordinates": [ -118.1507715, 34.1781371 ] } },
{ "type": "Feature", "properties": { "id": "north of the 210 Freeway", "formatted_address": "I-210, California, USA", "articles": [ "4QNANYOTDJEVXK4TINYY4CMXVU" ] }, "geometry": { "type": "Point", "coordinates": [ -118.1319758, 34.1519905 ] } },
{ "type": "Feature", "properties": { "id": "E . Orange Grove Blvd . , Pasadena", "formatted_address": "E Orange Grove Blvd, Pasadena, CA, USA", "articles": [ "4QNANYOTDJEVXK4TINYY4CMXVU" ] }, "geometry": { "type": "Point", "coordinates": [ -118.1161613, 34.15787 ] } },
{ "type": "Feature", "properties": { "id": "502 N . Fair Oaks Ave . , Pasadena .", "formatted_address": "502 N Fair Oaks Ave, Pasadena, CA 91103, USA", "articles": [ "4QNANYOTDJEVXK4TINYY4CMXVU" ] }, "geometry": { "type": "Point", "coordinates": [ -118.1504434, 34.1544667 ] } },
{ "type": "Feature", "properties": { "id": "Vallarta", "formatted_address": "7900 Imperial Hwy, Downey, CA 90242, United States", "articles": [ "4QNANYOTDJEVXK4TINYY4CMXVU" ] }, "geometry": { "type": "Point", "coordinates": [ -118.1540302, 33.9247783 ] } },
{ "type": "Feature", "properties": { "id": "490 N . Lake Ave . , Pasadena .", "formatted_address": "490 N Lake Ave, Pasadena, CA 91101, USA", "articles": [ "4QNANYOTDJEVXK4TINYY4CMXVU" ] }, "geometry": { "type": "Point", "coordinates": [ -118.1320758, 34.1545264 ] } },
{ "type": "Feature", "properties": { "id": "La Estrella Restaurant", "formatted_address": "330 Orange Grove Blvd, Pasadena, CA 91104, United States", "articles": [ "4QNANYOTDJEVXK4TINYY4CMXVU" ] }, "geometry": { "type": "Point", "coordinates": [ -118.143593, 34.157438 ] } },
{ "type": "Feature", "properties": { "id": "330 E . Orange Grove Blvd . , Pasadena .", "formatted_address": "330 E Orange Grove Blvd, Pasadena, CA 91104, USA", "articles": [ "4QNANYOTDJEVXK4TINYY4CMXVU" ] }, "geometry": { "type": "Point", "coordinates": [ -118.143593, 34.157438 ] } },
{ "type": "Feature", "properties": { "id": "Whole Foods", "formatted_address": "788 S Grand Ave, Los Angeles, CA 90017, United States", "articles": [ "4QNANYOTDJEVXK4TINYY4CMXVU" ] }, "geometry": { "type": "Point", "coordinates": [ -118.2572291, 34.0456943 ] } },
{ "type": "Feature", "properties": { "id": "half south", "formatted_address": "865 S Figueroa St Suite 2600, Los Angeles, CA 90017, United States", "articles": [ "4QNANYOTDJEVXK4TINYY4CMXVU" ] }, "geometry": { "type": "Point", "coordinates": [ -118.2629863, 34.046886 ] } },
{ "type": "Feature", "properties": { "id": "655 N . Fair Oaks Ave . , Pasadena .", "formatted_address": "655 N Fair Oaks Ave, Pasadena, CA 91103, USA", "articles": [ "4QNANYOTDJEVXK4TINYY4CMXVU" ] }, "geometry": { "type": "Point", "coordinates": [ -118.1522224, 34.1567375 ] } },
{ "type": "Feature", "properties": { "id": "El Taquito Mexicano", "formatted_address": "490 N Lake Ave, Pasadena, CA 91101, United States", "articles": [ "4QNANYOTDJEVXK4TINYY4CMXVU" ] }, "geometry": { "type": "Point", "coordinates": [ -118.1320634, 34.1545058 ] } },
{ "type": "Feature", "properties": { "id": "Kobe", "formatted_address": "3001 Old Ranch Pkwy, Seal Beach, CA 90740, United States", "articles": [ "7ZKPDDPKVFCYJKHGVSWLQYE2RU", "7ZKPDDPKVFCYJKHGVSWLQYE2RU" ] }, "geometry": { "type": "Point", "coordinates": [ -118.0731731, 33.777089 ] } },
{ "type": "Feature", "properties": { "id": "Cities", "formatted_address": "4512 East Cesar E Chavez Avenue, Los Angeles, CA 90022, United States", "articles": [ "G77TD5MLBRCYFEBJJUIKQELCWY" ] }, "geometry": { "type": "Point", "coordinates": [ -118.1687446, 34.0404665 ] } },
{ "type": "Feature", "properties": { "id": "Southern California", "formatted_address": "Southern California, CA, USA", "articles": [ "36JSZ2QEKNGHPME3MDPWOMHVNQ", "36JSZ2QEKNGHPME3MDPWOMHVNQ", "36JSZ2QEKNGHPME3MDPWOMHVNQ", "36JSZ2QEKNGHPME3MDPWOMHVNQ", "36JSZ2QEKNGHPME3MDPWOMHVNQ", "36JSZ2QEKNGHPME3MDPWOMHVNQ" ] }, "geometry": { "type": "Point", "coordinates": [ -116.419389, 34.9592083 ] } },
{ "type": "Feature", "properties": { "id": "C Santa Ana , CA", "formatted_address": "1701 E McFadden Ave suite c, Santa Ana, CA 92705, United States", "articles": [ "JTW4QKRIMRDM3A5QOIXQJPHCDE" ] }, "geometry": { "type": "Point", "coordinates": [ -117.8441962, 33.7342078 ] } },
{ "type": "Feature", "properties": { "id": "P", "formatted_address": "514 West Avenue P\/Rancho Vista Blvd, Palmdale, CA 93551, United States", "articles": [ "JTW4QKRIMRDM3A5QOIXQJPHCDE" ] }, "geometry": { "type": "Point", "coordinates": [ -118.138353, 34.60165 ] } },
{ "type": "Feature", "properties": { "id": "Gateway Drive Riverside , CA", "formatted_address": "Gateway Dr, Riverside, CA, USA", "articles": [ "JTW4QKRIMRDM3A5QOIXQJPHCDE" ] }, "geometry": { "type": "Point", "coordinates": [ -117.2818681, 33.9348196 ] } },
{ "type": "Feature", "properties": { "id": "L", "formatted_address": "6600 Topanga Canyon Blvd, Canoga Park, CA 91303, United States", "articles": [ "KIQ5K5TQFREH5C3K4W5FEYWGJI", "KIQ5K5TQFREH5C3K4W5FEYWGJI" ] }, "geometry": { "type": "Point", "coordinates": [ -118.6050549, 34.186213599999988 ] } },
{ "type": "Feature", "properties": { "id": "Orange counties", "formatted_address": "Orange County, CA, USA", "articles": [ "JTW4QKRIMRDM3A5QOIXQJPHCDE" ] }, "geometry": { "type": "Point", "coordinates": [ -117.8311428, 33.7174708 ] } },
{ "type": "Feature", "properties": { "id": "DELEGATE", "formatted_address": "10940 Wilshire Blvd, Los Angeles, CA 90024, United States", "articles": [ "JTW4QKRIMRDM3A5QOIXQJPHCDE" ] }, "geometry": { "type": "Point", "coordinates": [ -118.4450106, 34.0580431 ] } },
{ "type": "Feature", "properties": { "id": "Local", "formatted_address": "1736 Ocean Park Blvd, Santa Monica, CA 90405, United States", "articles": [ "U3MT2FFLNRFYFOCVXWDT44XCD4" ] }, "geometry": { "type": "Point", "coordinates": [ -118.4657028, 34.0129083 ] } },
{ "type": "Feature", "properties": { "id": "Golden State", "formatted_address": "426 N Fairfax Ave, Los Angeles, CA 90036, United States", "articles": [ "U3MT2FFLNRFYFOCVXWDT44XCD4" ] }, "geometry": { "type": "Point", "coordinates": [ -118.361325, 34.07905 ] } },
{ "type": "Feature", "properties": { "id": "abroad", "formatted_address": "101 Main St b, Seal Beach, CA 90740, United States", "articles": [ "U3MT2FFLNRFYFOCVXWDT44XCD4" ] }, "geometry": { "type": "Point", "coordinates": [ -118.105913, 33.7401967 ] } },
{ "type": "Feature", "properties": { "id": "Olive", "formatted_address": "32 E Colorado Blvd, Pasadena, CA 91105, United States", "articles": [ "U3MT2FFLNRFYFOCVXWDT44XCD4" ] }, "geometry": { "type": "Point", "coordinates": [ -118.1497082, 34.1455981 ] } },
{ "type": "Feature", "properties": { "id": "Temecula Olive Oil Company", "formatted_address": "46780 CA-371, Aguanga, CA 92536, United States", "articles": [ "U3MT2FFLNRFYFOCVXWDT44XCD4" ] }, "geometry": { "type": "Point", "coordinates": [ -116.8570983, 33.4446056 ] } },
{ "type": "Feature", "properties": { "id": "Nuvo Olive Oil", "formatted_address": "4208 Pepperwood Ave, Long Beach, CA 90808, United States", "articles": [ "U3MT2FFLNRFYFOCVXWDT44XCD4" ] }, "geometry": { "type": "Point", "coordinates": [ -118.1411222, 33.834143 ] } },
{ "type": "Feature", "properties": { "id": "1811 Ladera Rd .", "formatted_address": "1811 Ladera Rd, Ojai, CA 93023, USA", "articles": [ "U3MT2FFLNRFYFOCVXWDT44XCD4" ] }, "geometry": { "type": "Point", "coordinates": [ -119.206146, 34.4685305 ] } },
{ "type": "Feature", "properties": { "id": "Blair Berk", "formatted_address": "9119 Sunset Blvd, West Hollywood, CA 90069, United States", "articles": [ "XMERSUBL5NFKNLX2DGGQZMLYOY" ] }, "geometry": { "type": "Point", "coordinates": [ -118.3904752, 34.0908374 ] } },
{ "type": "Feature", "properties": { "id": "Hollywood", "formatted_address": "Hollywood, Los Angeles, CA, USA", "articles": [ "N73DBEX4MRGYFLMAVHRYEMDVKI", "N73DBEX4MRGYFLMAVHRYEMDVKI", "N73DBEX4MRGYFLMAVHRYEMDVKI", "N73DBEX4MRGYFLMAVHRYEMDVKI", "N73DBEX4MRGYFLMAVHRYEMDVKI", "N73DBEX4MRGYFLMAVHRYEMDVKI", "N73DBEX4MRGYFLMAVHRYEMDVKI", "N73DBEX4MRGYFLMAVHRYEMDVKI", "N73DBEX4MRGYFLMAVHRYEMDVKI" ] }, "geometry": { "type": "Point", "coordinates": [ -118.3295232, 34.0980031 ] } },
{ "type": "Feature", "properties": { "id": "N . Santa Monica Blvd . , Beverly Hills", "formatted_address": "N Santa Monica Blvd, Beverly Hills, CA, USA", "articles": [ "PTU4Q4YT5ZB6XIPBSXH5F7BVTI", "PTU4Q4YT5ZB6XIPBSXH5F7BVTI" ] }, "geometry": { "type": "Point", "coordinates": [ -118.4020386, 34.072766 ] } },
{ "type": "Feature", "properties": { "id": "Melrose Ave .", "formatted_address": "Melrose Ave, California, USA", "articles": [ "PTU4Q4YT5ZB6XIPBSXH5F7BVTI", "PTU4Q4YT5ZB6XIPBSXH5F7BVTI" ] }, "geometry": { "type": "Point", "coordinates": [ -118.3366144, 34.0834706 ] } },
{ "type": "Feature", "properties": { "id": "Gracias Madre", "formatted_address": "8905 Melrose Ave, West Hollywood, CA 90069, United States", "articles": [ "PTU4Q4YT5ZB6XIPBSXH5F7BVTI" ] }, "geometry": { "type": "Point", "coordinates": [ -118.3869915, 34.080855 ] } },
{ "type": "Feature", "properties": { "id": "Café Gratitude", "formatted_address": "300 S Santa Fe Ave, Los Angeles, CA 90013, United States", "articles": [ "PTU4Q4YT5ZB6XIPBSXH5F7BVTI" ] }, "geometry": { "type": "Point", "coordinates": [ -118.232518, 34.045779 ] } },
{ "type": "Feature", "properties": { "id": "N . Grand Ave .", "formatted_address": "Grand Ave, California 91030, USA", "articles": [ "PTU4Q4YT5ZB6XIPBSXH5F7BVTI" ] }, "geometry": { "type": "Point", "coordinates": [ -118.1632065, 34.1200717 ] } },
{ "type": "Feature", "properties": { "id": "Montana Ave", "formatted_address": "Montana Ave, California, USA", "articles": [ "PTU4Q4YT5ZB6XIPBSXH5F7BVTI" ] }, "geometry": { "type": "Point", "coordinates": [ -118.4809145, 34.0460461 ] } },
{ "type": "Feature", "properties": { "id": "Banh", "formatted_address": "647 W Valley Blvd, Alhambra, CA 91803, United States", "articles": [ "PTU4Q4YT5ZB6XIPBSXH5F7BVTI" ] }, "geometry": { "type": "Point", "coordinates": [ -118.1302778, 34.0783333 ] } },
{ "type": "Feature", "properties": { "id": "Alma Backyard Farms", "formatted_address": "804 E Compton Blvd, Rancho Dominguez, CA 90220, United States", "articles": [ "PTU4Q4YT5ZB6XIPBSXH5F7BVTI" ] }, "geometry": { "type": "Point", "coordinates": [ -118.2624643, 33.8943665 ] } },
{ "type": "Feature", "properties": { "id": "804 E . Compton Blvd .", "formatted_address": "804 E Compton Blvd, Compton, CA 90220, USA", "articles": [ "PTU4Q4YT5ZB6XIPBSXH5F7BVTI" ] }, "geometry": { "type": "Point", "coordinates": [ -118.2624838, 33.8949986 ] } },
{ "type": "Feature", "properties": { "id": "Tet", "formatted_address": "194 N Leland Norton Way, San Bernardino, CA 92408, United States", "articles": [ "PTU4Q4YT5ZB6XIPBSXH5F7BVTI" ] }, "geometry": { "type": "Point", "coordinates": [ -117.2478929, 34.1027843 ] } },
{ "type": "Feature", "properties": { "id": "Dodger", "formatted_address": "1000 Vin Scully Ave, Los Angeles, CA 90012, United States", "articles": [ "PTU4Q4YT5ZB6XIPBSXH5F7BVTI" ] }, "geometry": { "type": "Point", "coordinates": [ -118.2399583, 34.073851 ] } },
{ "type": "Feature", "properties": { "id": "Vin Scully Ave", "formatted_address": "Vin Scully Ave, Los Angeles, CA 90026, USA", "articles": [ "PTU4Q4YT5ZB6XIPBSXH5F7BVTI" ] }, "geometry": { "type": "Point", "coordinates": [ -118.2490324, 34.07246 ] } },
{ "type": "Feature", "properties": { "id": "OC Fair and Event Center in Costa Mesa", "formatted_address": "88 Fair Dr, Costa Mesa, CA 92626, United States", "articles": [ "PTU4Q4YT5ZB6XIPBSXH5F7BVTI" ] }, "geometry": { "type": "Point", "coordinates": [ -117.9027196, 33.6657383 ] } },
{ "type": "Feature", "properties": { "id": "St", "formatted_address": "625 S St Andrews Pl, Los Angeles, CA 90005, United States", "articles": [ "ROGW5SUXOJHNNE4MOBWHDLGI3I", "ROGW5SUXOJHNNE4MOBWHDLGI3I" ] }, "geometry": { "type": "Point", "coordinates": [ -118.3117799, 34.0627967 ] } },
{ "type": "Feature", "properties": { "id": "Glendale Blvd", "formatted_address": "Glendale Blvd, California, USA", "articles": [ "PTU4Q4YT5ZB6XIPBSXH5F7BVTI" ] }, "geometry": { "type": "Point", "coordinates": [ -118.2588317, 34.0925564 ] } },
{ "type": "Feature", "properties": { "id": "Mohawk Bend", "formatted_address": "2141 Sunset Blvd, Los Angeles, CA 90026, United States", "articles": [ "PTU4Q4YT5ZB6XIPBSXH5F7BVTI" ] }, "geometry": { "type": "Point", "coordinates": [ -118.264789, 34.0776627 ] } },
{ "type": "Feature", "properties": { "id": "2141 Sunset Blvd . , Echo Park", "formatted_address": "2141 Sunset Blvd, Los Angeles, CA 90026, USA", "articles": [ "PTU4Q4YT5ZB6XIPBSXH5F7BVTI" ] }, "geometry": { "type": "Point", "coordinates": [ -118.2647678, 34.077695299999988 ] } },
{ "type": "Feature", "properties": { "id": "LA River", "formatted_address": "Los Angeles River, California, USA", "articles": [ "PTU4Q4YT5ZB6XIPBSXH5F7BVTI" ] }, "geometry": { "type": "Point", "coordinates": [ -118.2231868, 34.0154242 ] } },
{ "type": "Feature", "properties": { "id": "W . Colorado Blvd", "formatted_address": "Pasadena, CA 91101, United States", "articles": [ "PTU4Q4YT5ZB6XIPBSXH5F7BVTI" ] }, "geometry": { "type": "Point", "coordinates": [ -118.133188, 34.145985 ] } },
{ "type": "Feature", "properties": { "id": "Ace Hotel", "formatted_address": "929 S Broadway, Los Angeles, CA 90015, United States", "articles": [ "N6CFXR53IRHEDNWYAZCNHPUYGM", "N6CFXR53IRHEDNWYAZCNHPUYGM" ] }, "geometry": { "type": "Point", "coordinates": [ -118.2570341, 34.0418769 ] } },
{ "type": "Feature", "properties": { "id": "929 S . Broadway", "formatted_address": "929 S Broadway, Los Angeles, CA 90015, United States", "articles": [ "N6CFXR53IRHEDNWYAZCNHPUYGM", "N6CFXR53IRHEDNWYAZCNHPUYGM" ] }, "geometry": { "type": "Point", "coordinates": [ -118.2570341, 34.0418769 ] } },
{ "type": "Feature", "properties": { "id": "525 Wilshire Blvd . , Santa Monica", "formatted_address": "525 Wilshire Blvd, Santa Monica, CA 90401, USA", "articles": [ "PTU4Q4YT5ZB6XIPBSXH5F7BVTI" ] }, "geometry": { "type": "Point", "coordinates": [ -118.4969955, 34.0206433 ] } },
{ "type": "Feature", "properties": { "id": "Westlake", "formatted_address": "4751 Wilshire Blvd #100, Los Angeles, CA 90010, United States", "articles": [ "PTU4Q4YT5ZB6XIPBSXH5F7BVTI" ] }, "geometry": { "type": "Point", "coordinates": [ -118.333794, 34.062412 ] } },
{ "type": "Feature", "properties": { "id": "Wilshire Blvd", "formatted_address": "Wilshire Blvd, California, USA", "articles": [ "36JSZ2QEKNGHPME3MDPWOMHVNQ", "36JSZ2QEKNGHPME3MDPWOMHVNQ", "36JSZ2QEKNGHPME3MDPWOMHVNQ" ] }, "geometry": { "type": "Point", "coordinates": [ -118.3718785, 34.0641069 ] } },
{ "type": "Feature", "properties": { "id": "366 N . La Cienega Blvd .", "formatted_address": "366 N La Cienega Blvd, Los Angeles, CA 90048, USA", "articles": [ "PTU4Q4YT5ZB6XIPBSXH5F7BVTI" ] }, "geometry": { "type": "Point", "coordinates": [ -118.3763237, 34.0778693 ] } },
{ "type": "Feature", "properties": { "id": "Park", "formatted_address": "4730 Crystal Springs Dr, Los Angeles, CA 90027, United States", "articles": [ "PTU4Q4YT5ZB6XIPBSXH5F7BVTI" ] }, "geometry": { "type": "Point", "coordinates": [ -118.2942, 34.1365544 ] } },
{ "type": "Feature", "properties": { "id": "Olympic Blvd", "formatted_address": "W Olympic Blvd, California, USA", "articles": [ "PTU4Q4YT5ZB6XIPBSXH5F7BVTI" ] }, "geometry": { "type": "Point", "coordinates": [ -118.3577417, 34.0574796 ] } },
{ "type": "Feature", "properties": { "id": "Indiana St near Jim ' s Burgers ( 3900 E . Olympic", "formatted_address": "3900 E Olympic Blvd, Los Angeles, CA 90023, United States", "articles": [ "PTU4Q4YT5ZB6XIPBSXH5F7BVTI" ] }, "geometry": { "type": "Point", "coordinates": [ -118.1920406, 34.0186599 ] } },
{ "type": "Feature", "properties": { "id": "Knots Landing", "formatted_address": "40840 Big Bear Blvd, Big Bear Lake, CA 92315, United States", "articles": [ "PTU4Q4YT5ZB6XIPBSXH5F7BVTI" ] }, "geometry": { "type": "Point", "coordinates": [ -116.9106778, 34.2439003 ] } },
{ "type": "Feature", "properties": { "id": "The Hollywood Museum", "formatted_address": "1660 N Highland Ave, Hollywood, CA 90028, United States", "articles": [ "PTU4Q4YT5ZB6XIPBSXH5F7BVTI" ] }, "geometry": { "type": "Point", "coordinates": [ -118.3383918, 34.101087199999988 ] } },
{ "type": "Feature", "properties": { "id": "N . Highland Ave . , Hollywood", "formatted_address": "N Highland Ave, Los Angeles, CA, USA", "articles": [ "PTU4Q4YT5ZB6XIPBSXH5F7BVTI" ] }, "geometry": { "type": "Point", "coordinates": [ -118.3386171, 34.0910553 ] } },
{ "type": "Feature", "properties": { "id": ", Knots Landing", "formatted_address": "40840 Big Bear Blvd, Big Bear Lake, CA 92315, United States", "articles": [ "PTU4Q4YT5ZB6XIPBSXH5F7BVTI" ] }, "geometry": { "type": "Point", "coordinates": [ -116.9106778, 34.2439003 ] } },
{ "type": "Feature", "properties": { "id": "Silver Lake", "formatted_address": "Silver Lake, Los Angeles, CA, USA", "articles": [ "3CIEWWAX2BGR7HQUT6OLUFYEHA", "3CIEWWAX2BGR7HQUT6OLUFYEHA" ] }, "geometry": { "type": "Point", "coordinates": [ -118.2693735, 34.0896518 ] } },
{ "type": "Feature", "properties": { "id": "( 101 Wilshire Blvd . , Santa Monica", "formatted_address": "101 Wilshire Blvd, Santa Monica, CA 90401, USA", "articles": [ "PTU4Q4YT5ZB6XIPBSXH5F7BVTI" ] }, "geometry": { "type": "Point", "coordinates": [ -118.5014962, 34.017845 ] } },
{ "type": "Feature", "properties": { "id": "MLK Blvd", "formatted_address": "Los Angeles, CA 90008, United States", "articles": [ "PTU4Q4YT5ZB6XIPBSXH5F7BVTI" ] }, "geometry": { "type": "Point", "coordinates": [ -118.3348159, 34.0108172 ] } },
{ "type": "Feature", "properties": { "id": "and Leimert Blvd", "formatted_address": "Leimert Blvd, Los Angeles, CA, USA", "articles": [ "PTU4Q4YT5ZB6XIPBSXH5F7BVTI" ] }, "geometry": { "type": "Point", "coordinates": [ -118.3278777, 34.0067762 ] } },
{ "type": "Feature", "properties": { "id": "222 N . Vineyard Ave . , Ontario", "formatted_address": "222 N Vineyard Ave, Ontario, CA 91764, USA", "articles": [ "PTU4Q4YT5ZB6XIPBSXH5F7BVTI" ] }, "geometry": { "type": "Point", "coordinates": [ -117.6099279, 34.066494 ] } },
{ "type": "Feature", "properties": { "id": "Degnan Blvd", "formatted_address": "Degnan Blvd, Los Angeles, CA, USA", "articles": [ "PTU4Q4YT5ZB6XIPBSXH5F7BVTI" ] }, "geometry": { "type": "Point", "coordinates": [ -118.3310425, 34.0129202 ] } },
{ "type": "Feature", "properties": { "id": "Vietnamese", "formatted_address": "340 W Las Tunas Dr, San Gabriel, CA 91776, United States", "articles": [ "PTU4Q4YT5ZB6XIPBSXH5F7BVTI" ] }, "geometry": { "type": "Point", "coordinates": [ -118.1040817, 34.1021881 ] } },
{ "type": "Feature", "properties": { "id": "Kern River Brewing", "formatted_address": "13415 Sierra Way, Kernville, CA 93238, United States", "articles": [ "PTU4Q4YT5ZB6XIPBSXH5F7BVTI" ] }, "geometry": { "type": "Point", "coordinates": [ -118.4192657, 35.7574806 ] } },
{ "type": "Feature", "properties": { "id": "Dry River Brewery", "formatted_address": "671 S Anderson St, Los Angeles, CA 90023, United States", "articles": [ "PTU4Q4YT5ZB6XIPBSXH5F7BVTI" ] }, "geometry": { "type": "Point", "coordinates": [ -118.223479, 34.035894 ] } },
{ "type": "Feature", "properties": { "id": "Fairmont Miramar Hotel & Bungalows", "formatted_address": "101 Wilshire Blvd, Santa Monica, CA 90401, United States", "articles": [ "PTU4Q4YT5ZB6XIPBSXH5F7BVTI" ] }, "geometry": { "type": "Point", "coordinates": [ -118.5007727, 34.0172021 ] } },
{ "type": "Feature", "properties": { "id": "Los Angeles County District Attorney ' s office", "formatted_address": "211 W Temple St, Los Angeles, CA 90012, United States", "articles": [ "KOZIUUVEZFGPBFGTSRNLM63TXE" ] }, "geometry": { "type": "Point", "coordinates": [ -118.2427609, 34.0557823 ] } },
{ "type": "Feature", "properties": { "id": "' s office", "formatted_address": "1190 Baker St # 103, Costa Mesa, CA 92626, United States", "articles": [ "KOZIUUVEZFGPBFGTSRNLM63TXE" ] }, "geometry": { "type": "Point", "coordinates": [ -117.9071557, 33.6810079 ] } },
{ "type": "Feature", "properties": { "id": "Antelope Valley", "formatted_address": "Antelope Valley, Lancaster, CA 93536, USA", "articles": [ "KOZIUUVEZFGPBFGTSRNLM63TXE" ] }, "geometry": { "type": "Point", "coordinates": [ -118.2522977, 34.7513712 ] } },
{ "type": "Feature", "properties": { "id": "RACHEL", "formatted_address": "8432 Melrose Pl, Los Angeles, CA 90069, United States", "articles": [ "KOZIUUVEZFGPBFGTSRNLM63TXE" ] }, "geometry": { "type": "Point", "coordinates": [ -118.3744422, 34.0833806 ] } },
{ "type": "Feature", "properties": { "id": "L . A . County Public Defender ' s office", "formatted_address": "210 W Temple St, Los Angeles, CA 90012, United States", "articles": [ "KOZIUUVEZFGPBFGTSRNLM63TXE" ] }, "geometry": { "type": "Point", "coordinates": [ -118.2432632, 34.0549373 ] } },
{ "type": "Feature", "properties": { "id": "S . Figueroa St . , downtown L . A .", "formatted_address": "939 S Figueroa St, Los Angeles, CA 90015, United States", "articles": [ "A4DLJKD2GBENBNHZ3AM2ASNG5A", "A4DLJKD2GBENBNHZ3AM2ASNG5A" ] }, "geometry": { "type": "Point", "coordinates": [ -118.2640127, 34.045565 ] } },
{ "type": "Feature", "properties": { "id": "Pizzeria & Bar", "formatted_address": "8947 Sunset Blvd, West Hollywood, CA 90069, United States", "articles": [ "A4DLJKD2GBENBNHZ3AM2ASNG5A" ] }, "geometry": { "type": "Point", "coordinates": [ -118.3866901, 34.090872100000013 ] } },
{ "type": "Feature", "properties": { "id": "Sunset", "formatted_address": "24000 Waalew Rd, Apple Valley, CA 92307, United States", "articles": [ "A4DLJKD2GBENBNHZ3AM2ASNG5A" ] }, "geometry": { "type": "Point", "coordinates": [ -117.1426018, 34.5575536 ] } },
{ "type": "Feature", "properties": { "id": "2102 E . First St . , Boyle Heights", "formatted_address": "2102 E 1st St, Los Angeles, CA 90033, USA", "articles": [ "A4DLJKD2GBENBNHZ3AM2ASNG5A" ] }, "geometry": { "type": "Point", "coordinates": [ -118.2136746, 34.0446827 ] } },
{ "type": "Feature", "properties": { "id": "L . A . ' s", "formatted_address": "850 Foothill Blvd, Rialto, CA 92376, United States", "articles": [ "A4DLJKD2GBENBNHZ3AM2ASNG5A" ] }, "geometry": { "type": "Point", "coordinates": [ -117.354247, 34.1080174 ] } },
{ "type": "Feature", "properties": { "id": "Electric", "formatted_address": "5938 Autry Ave, Lakewood, CA 90712, United States", "articles": [ "A4DLJKD2GBENBNHZ3AM2ASNG5A" ] }, "geometry": { "type": "Point", "coordinates": [ -118.1269453, 33.8632001 ] } },
{ "type": "Feature", "properties": { "id": "2701 N . Sepulveda Blvd . , Brentwood", "formatted_address": "2701 N Sepulveda Blvd, Los Angeles, CA 90049, USA", "articles": [ "A4DLJKD2GBENBNHZ3AM2ASNG5A" ] }, "geometry": { "type": "Point", "coordinates": [ -118.4793103, 34.1230776 ] } },
{ "type": "Feature", "properties": { "id": "Wilshire Center Koreatown Neighborhood", "formatted_address": "3450 Wilshire Blvd #108-2B, Los Angeles, CA 90010, United States", "articles": [ "A4DLJKD2GBENBNHZ3AM2ASNG5A" ] }, "geometry": { "type": "Point", "coordinates": [ -118.2995333, 34.0612685 ] } },
{ "type": "Feature", "properties": { "id": "2511 Wilshire Blvd . ,", "formatted_address": "2511 Wilshire Blvd, Los Angeles, CA 90057, United States", "articles": [ "A4DLJKD2GBENBNHZ3AM2ASNG5A" ] }, "geometry": { "type": "Point", "coordinates": [ -118.2807443, 34.0604788 ] } },
{ "type": "Feature", "properties": { "id": "Vista Theatre", "formatted_address": "4473 Sunset Dr, Los Angeles, CA 90027, United States", "articles": [ "A4DLJKD2GBENBNHZ3AM2ASNG5A" ] }, "geometry": { "type": "Point", "coordinates": [ -118.2869511, 34.0982827 ] } },
{ "type": "Feature", "properties": { "id": "665 W . Lancaster Blvd . , Lancaster", "formatted_address": "665 W Lancaster Blvd, Lancaster, CA 93534, USA", "articles": [ "A4DLJKD2GBENBNHZ3AM2ASNG5A" ] }, "geometry": { "type": "Point", "coordinates": [ -118.1418003, 34.6981717 ] } },
{ "type": "Feature", "properties": { "id": "Annenberg", "formatted_address": "2000 Avenue of the Stars, Los Angeles, CA 90067, United States", "articles": [ "A4DLJKD2GBENBNHZ3AM2ASNG5A" ] }, "geometry": { "type": "Point", "coordinates": [ -118.4132331, 34.0579574 ] } },
{ "type": "Feature", "properties": { "id": "2000 Avenue of the Stars , Century City", "formatted_address": "2000 Avenue of the Stars, Los Angeles, CA 90067, USA", "articles": [ "A4DLJKD2GBENBNHZ3AM2ASNG5A" ] }, "geometry": { "type": "Point", "coordinates": [ -118.4146216, 34.0581895 ] } },
{ "type": "Feature", "properties": { "id": "4242 Campus Dr , Irvine", "formatted_address": "Irvine Barclay Theater, 4242 Campus Dr, Irvine, CA 92697, USA", "articles": [ "A4DLJKD2GBENBNHZ3AM2ASNG5A" ] }, "geometry": { "type": "Point", "coordinates": [ -117.8408089, 33.6491845 ] } },
{ "type": "Feature", "properties": { "id": "Vine St . , Hollywood", "formatted_address": "Vine St, Los Angeles, CA, USA", "articles": [ "A4DLJKD2GBENBNHZ3AM2ASNG5A" ] }, "geometry": { "type": "Point", "coordinates": [ -118.32667, 34.0967106 ] } },
{ "type": "Feature", "properties": { "id": "7th St . ,", "formatted_address": "1200 W 7th St, Los Angeles, CA 90017, United States", "articles": [ "A4DLJKD2GBENBNHZ3AM2ASNG5A" ] }, "geometry": { "type": "Point", "coordinates": [ -118.2661187, 34.051226 ] } },
{ "type": "Feature", "properties": { "id": "2459 E . 8th St . , downtown L . A .", "formatted_address": "2459 E 8th St, Los Angeles, CA 90021, United States", "articles": [ "A4DLJKD2GBENBNHZ3AM2ASNG5A" ] }, "geometry": { "type": "Point", "coordinates": [ -118.228132, 34.02986 ] } },
{ "type": "Feature", "properties": { "id": "Marlton Ave .", "formatted_address": "Marlton Ave, Los Angeles, CA 90008, USA", "articles": [ "A4DLJKD2GBENBNHZ3AM2ASNG5A" ] }, "geometry": { "type": "Point", "coordinates": [ -118.339231, 34.0108358 ] } },
{ "type": "Feature", "properties": { "id": "The Hayworth", "formatted_address": "2511 Wilshire Blvd, Los Angeles, CA 90057, United States", "articles": [ "A4DLJKD2GBENBNHZ3AM2ASNG5A" ] }, "geometry": { "type": "Point", "coordinates": [ -118.2807443, 34.0604788 ] } },
{ "type": "Feature", "properties": { "id": "Spice Table", "formatted_address": "114 S Central Ave, Los Angeles, CA 90012, United States", "articles": [ "A4DLJKD2GBENBNHZ3AM2ASNG5A" ] }, "geometry": { "type": "Point", "coordinates": [ -118.2389484, 34.0486266 ] } },
{ "type": "Feature", "properties": { "id": "American", "formatted_address": "BUR, 2627 N Hollywood Way, Burbank, CA 91505, United States", "articles": [ "36JSZ2QEKNGHPME3MDPWOMHVNQ", "36JSZ2QEKNGHPME3MDPWOMHVNQ" ] }, "geometry": { "type": "Point", "coordinates": [ -118.3542037, 34.1968161 ] } },
{ "type": "Feature", "properties": { "id": "Cassia", "formatted_address": "1314 7th St, Santa Monica, CA 90401, United States", "articles": [ "A4DLJKD2GBENBNHZ3AM2ASNG5A" ] }, "geometry": { "type": "Point", "coordinates": [ -118.4936106, 34.0194533 ] } },
{ "type": "Feature", "properties": { "id": "Egyptian Theatre Hollywood", "formatted_address": "6712 Hollywood Blvd, Los Angeles, CA 90028, United States", "articles": [ "A4DLJKD2GBENBNHZ3AM2ASNG5A" ] }, "geometry": { "type": "Point", "coordinates": [ -118.3366101, 34.1009124 ] } },
{ "type": "Feature", "properties": { "id": "Hollywood Blvd", "formatted_address": "Hollywood Blvd, Los Angeles, CA, USA", "articles": [ "A4DLJKD2GBENBNHZ3AM2ASNG5A" ] }, "geometry": { "type": "Point", "coordinates": [ -118.3333515, 34.1015921 ] } },
{ "type": "Feature", "properties": { "id": "700 Jackson St . , downtown L . A .", "formatted_address": "700 Jackson St, Los Angeles, CA 90012, United States", "articles": [ "A4DLJKD2GBENBNHZ3AM2ASNG5A" ] }, "geometry": { "type": "Point", "coordinates": [ -118.2332283, 34.050791 ] } },
{ "type": "Feature", "properties": { "id": "Culture Institute", "formatted_address": "4901 E Carson St B9, Long Beach, CA 90808, United States", "articles": [ "A4DLJKD2GBENBNHZ3AM2ASNG5A" ] }, "geometry": { "type": "Point", "coordinates": [ -118.135482, 33.832661 ] } },
{ "type": "Feature", "properties": { "id": "St . Jude Children ' s Research Hospital", "formatted_address": "12365 Lewis St, Garden Grove, CA 92840, United States", "articles": [ "A4DLJKD2GBENBNHZ3AM2ASNG5A" ] }, "geometry": { "type": "Point", "coordinates": [ -117.8979042, 33.783204 ] } },
{ "type": "Feature", "properties": { "id": "Main Gallery", "formatted_address": "1530 W 17th St, Santa Ana, CA 92706, United States", "articles": [ "A4DLJKD2GBENBNHZ3AM2ASNG5A" ] }, "geometry": { "type": "Point", "coordinates": [ -117.8859244, 33.7590602 ] } },
{ "type": "Feature", "properties": { "id": "Wells Fargo Gallery", "formatted_address": "3765 Tyler St, Riverside, CA 92503, United States", "articles": [ "A4DLJKD2GBENBNHZ3AM2ASNG5A" ] }, "geometry": { "type": "Point", "coordinates": [ -117.4605484, 33.9114244 ] } },
{ "type": "Feature", "properties": { "id": "South Gallery", "formatted_address": "30 S Wilson Ave, Pasadena, CA 91106, United States", "articles": [ "A4DLJKD2GBENBNHZ3AM2ASNG5A" ] }, "geometry": { "type": "Point", "coordinates": [ -118.1278452, 34.1452116 ] } },
{ "type": "Feature", "properties": { "id": "Broadway", "formatted_address": "830 S Broadway, Los Angeles, CA 90014, United States", "articles": [ "A4DLJKD2GBENBNHZ3AM2ASNG5A" ] }, "geometry": { "type": "Point", "coordinates": [ -118.2551748, 34.0428699 ] } },
{ "type": "Feature", "properties": { "id": "LA", "formatted_address": "Los Angeles, CA, USA", "articles": [ "GTPWMKJZ6FGVDHEYGM3ZUSXGLM" ] }, "geometry": { "type": "Point", "coordinates": [ -118.2436849, 34.0522342 ] } },
{ "type": "Feature", "properties": { "id": "Ensley Ave . , Century City .", "formatted_address": "Ensley Ave, Los Angeles, CA 90024, USA", "articles": [ "GTPWMKJZ6FGVDHEYGM3ZUSXGLM" ] }, "geometry": { "type": "Point", "coordinates": [ -118.4216953, 34.0618261 ] } },
{ "type": "Feature", "properties": { "id": "Civic Center Dr . , Beverly Hills .", "formatted_address": "Civic Center Dr, Beverly Hills, CA 90210, USA", "articles": [ "GTPWMKJZ6FGVDHEYGM3ZUSXGLM" ] }, "geometry": { "type": "Point", "coordinates": [ -118.3955272, 34.076796 ] } },
{ "type": "Feature", "properties": { "id": "911 N . Seward St . , Hollywood .", "formatted_address": "911 Seward St, Los Angeles, CA 90038, USA", "articles": [ "GTPWMKJZ6FGVDHEYGM3ZUSXGLM" ] }, "geometry": { "type": "Point", "coordinates": [ -118.3333417, 34.087579 ] } },
{ "type": "Feature", "properties": { "id": "10801 W . Pico Blvd . , West L . A", "formatted_address": "10801 W Pico Blvd, Los Angeles, CA 90064, USA", "articles": [ "GTPWMKJZ6FGVDHEYGM3ZUSXGLM" ] }, "geometry": { "type": "Point", "coordinates": [ -118.4278502, 34.0406896 ] } },
{ "type": "Feature", "properties": { "id": "Esters Wine Shop & Bar", "formatted_address": "1314 7th St, Santa Monica, CA 90401, United States", "articles": [ "GTPWMKJZ6FGVDHEYGM3ZUSXGLM" ] }, "geometry": { "type": "Point", "coordinates": [ -118.4936477, 34.0193796 ] } },
{ "type": "Feature", "properties": { "id": "1314 Seventh St . , Santa Monica .", "formatted_address": "1314 7th St, Santa Monica, CA 90401, USA", "articles": [ "GTPWMKJZ6FGVDHEYGM3ZUSXGLM" ] }, "geometry": { "type": "Point", "coordinates": [ -118.4936083, 34.0193455 ] } },
{ "type": "Feature", "properties": { "id": "735 S . Figueroa St .", "formatted_address": "735 S Figueroa St, Los Angeles, CA 90017, USA", "articles": [ "GTPWMKJZ6FGVDHEYGM3ZUSXGLM" ] }, "geometry": { "type": "Point", "coordinates": [ -118.260562, 34.049209 ] } },
{ "type": "Feature", "properties": { "id": "5505 N . Rosemead Blvd . , Temple City .", "formatted_address": "5505 Rosemead Blvd, Temple City, CA 91780, USA", "articles": [ "GTPWMKJZ6FGVDHEYGM3ZUSXGLM" ] }, "geometry": { "type": "Point", "coordinates": [ -118.0737447, 34.0992577 ] } },
{ "type": "Feature", "properties": { "id": "2300 S . Atlantic Blvd . , Monterey Park .", "formatted_address": "2300 S Atlantic Blvd, Monterey Park, CA 91754, USA", "articles": [ "GTPWMKJZ6FGVDHEYGM3ZUSXGLM" ] }, "geometry": { "type": "Point", "coordinates": [ -118.1464401, 34.0372203 ] } },
{ "type": "Feature", "properties": { "id": "611 W . Route 66 , Glendora .", "formatted_address": "611 W Rte 66, Glendora, CA 91741, USA", "articles": [ "GTPWMKJZ6FGVDHEYGM3ZUSXGLM" ] }, "geometry": { "type": "Point", "coordinates": [ -117.8740446, 34.1290155 ] } },
{ "type": "Feature", "properties": { "id": "1 W . Valley Blvd . , Alhambra .", "formatted_address": "1 W Valley Blvd, Alhambra, CA 91801, USA", "articles": [ "GTPWMKJZ6FGVDHEYGM3ZUSXGLM" ] }, "geometry": { "type": "Point", "coordinates": [ -118.1232288, 34.0787745 ] } },
{ "type": "Feature", "properties": { "id": "Swingers", "formatted_address": "8020 Beverly Blvd, Los Angeles, CA 90048, United States", "articles": [ "GTPWMKJZ6FGVDHEYGM3ZUSXGLM" ] }, "geometry": { "type": "Point", "coordinates": [ -118.3646333, 34.0759278 ] } },
{ "type": "Feature", "properties": { "id": "Broadway , Santa Monica .", "formatted_address": "Broadway, Santa Monica, CA, USA", "articles": [ "GTPWMKJZ6FGVDHEYGM3ZUSXGLM" ] }, "geometry": { "type": "Point", "coordinates": [ -118.481293, 34.0250545 ] } },
{ "type": "Feature", "properties": { "id": "108 W . 2nd St . , downtown L . A .", "formatted_address": "108 W 2nd St #104, Los Angeles, CA 90012, United States", "articles": [ "GTPWMKJZ6FGVDHEYGM3ZUSXGLM" ] }, "geometry": { "type": "Point", "coordinates": [ -118.2448571, 34.0511033 ] } },
{ "type": "Feature", "properties": { "id": "418 N . Fairfax Ave . , Fairfax .", "formatted_address": "418 N Fairfax Ave, Los Angeles, CA 90036, USA", "articles": [ "GTPWMKJZ6FGVDHEYGM3ZUSXGLM" ] }, "geometry": { "type": "Point", "coordinates": [ -118.3611977, 34.0788066 ] } },
{ "type": "Feature", "properties": { "id": "Santa Rosalia Dr . , Crenshaw .", "formatted_address": "Santa Rosalia Dr, Los Angeles, CA 90008, USA", "articles": [ "GTPWMKJZ6FGVDHEYGM3ZUSXGLM" ] }, "geometry": { "type": "Point", "coordinates": [ -118.3422936, 34.0121208 ] } },
{ "type": "Feature", "properties": { "id": ", Ste .", "formatted_address": "750 Terrado Plaza #13, Covina, CA 91723, United States", "articles": [ "GTPWMKJZ6FGVDHEYGM3ZUSXGLM" ] }, "geometry": { "type": "Point", "coordinates": [ -117.8891573, 34.0758677 ] } },
{ "type": "Feature", "properties": { "id": "216 E . Olive Ave . , Burbank .", "formatted_address": "216 E Olive Ave, Burbank, CA 91502, USA", "articles": [ "GTPWMKJZ6FGVDHEYGM3ZUSXGLM" ] }, "geometry": { "type": "Point", "coordinates": [ -118.308226, 34.1810697 ] } },
{ "type": "Feature", "properties": { "id": "7300 Sunset Blvd . , Hollywood .", "formatted_address": "7300 Sunset Blvd, Los Angeles, CA 90046, USA", "articles": [ "GTPWMKJZ6FGVDHEYGM3ZUSXGLM" ] }, "geometry": { "type": "Point", "coordinates": [ -118.349893, 34.0974499 ] } },
{ "type": "Feature", "properties": { "id": "9411 Reseda Blvd . , Northridge .", "formatted_address": "9411 Reseda Blvd, Northridge, CA 91324, USA", "articles": [ "GTPWMKJZ6FGVDHEYGM3ZUSXGLM" ] }, "geometry": { "type": "Point", "coordinates": [ -118.5363456, 34.2412993 ] } },
{ "type": "Feature", "properties": { "id": "Long Beach Blvd . , Long Beach .", "formatted_address": "Long Beach Blvd, Long Beach, CA, USA", "articles": [ "GTPWMKJZ6FGVDHEYGM3ZUSXGLM" ] }, "geometry": { "type": "Point", "coordinates": [ -118.1893638, 33.8259339 ] } },
{ "type": "Feature", "properties": { "id": "3600 W . 6th St . , Koreatown .", "formatted_address": "3600 W 6th St, Los Angeles, CA 90020, USA", "articles": [ "GTPWMKJZ6FGVDHEYGM3ZUSXGLM" ] }, "geometry": { "type": "Point", "coordinates": [ -118.3005607, 34.0634255 ] } },
{ "type": "Feature", "properties": { "id": "421 W . 8th St . , downtown L . A .", "formatted_address": "421 W 8th St, Los Angeles, CA 90014, United States", "articles": [ "GTPWMKJZ6FGVDHEYGM3ZUSXGLM" ] }, "geometry": { "type": "Point", "coordinates": [ -118.2562864, 34.045056 ] } },
{ "type": "Feature", "properties": { "id": "LAX", "formatted_address": "1 World Way, Los Angeles, CA 90045, United States", "articles": [ "GTPWMKJZ6FGVDHEYGM3ZUSXGLM" ] }, "geometry": { "type": "Point", "coordinates": [ -118.40853, 33.9415889 ] } },
{ "type": "Feature", "properties": { "id": "La Brea Bakery", "formatted_address": "468 South La Brea Ave, Los Angeles, CA 90036, United States", "articles": [ "GTPWMKJZ6FGVDHEYGM3ZUSXGLM" ] }, "geometry": { "type": "Point", "coordinates": [ -118.3438366, 34.065028 ] } },
{ "type": "Feature", "properties": { "id": "491 N . Lake Ave . , Pasadena .", "formatted_address": "491 N Lake Ave, Pasadena, CA 91101, USA", "articles": [ "GTPWMKJZ6FGVDHEYGM3ZUSXGLM" ] }, "geometry": { "type": "Point", "coordinates": [ -118.1326806, 34.1544525 ] } },
{ "type": "Feature", "properties": { "id": "1 World Way", "formatted_address": "1 World Way, Los Angeles, CA 90045, USA", "articles": [ "GTPWMKJZ6FGVDHEYGM3ZUSXGLM" ] }, "geometry": { "type": "Point", "coordinates": [ -118.3981917, 33.9446777 ] } },
{ "type": "Feature", "properties": { "id": "Yokohama", "formatted_address": "1 MacArthur Pl #800, Santa Ana, CA 92707, United States", "articles": [ "STWULTLAJ5GFVMNF43AAGQ7PNI" ] }, "geometry": { "type": "Point", "coordinates": [ -117.8654353, 33.7025312 ] } },
{ "type": "Feature", "properties": { "id": "Santa Clarita Valley", "formatted_address": "26455 Rockwell Canyon Road #263, College of the Canyons University Center, Santa Clarita, CA 91355, United States", "articles": [ "STWULTLAJ5GFVMNF43AAGQ7PNI" ] }, "geometry": { "type": "Point", "coordinates": [ -118.568065, 34.404529 ] } },
{ "type": "Feature", "properties": { "id": "Japanese", "formatted_address": "8736 S Sepulveda Blvd C, Los Angeles, CA 90045, United States", "articles": [ "STWULTLAJ5GFVMNF43AAGQ7PNI" ] }, "geometry": { "type": "Point", "coordinates": [ -118.3958837, 33.9577589 ] } },
{ "type": "Feature", "properties": { "id": "Silver Lake Reservoir", "formatted_address": "Silver Lake Reservoir, Los Angeles, CA 90039, USA", "articles": [ "WW6PGHQXKRFBVCMIITUWMNXLOA" ] }, "geometry": { "type": "Point", "coordinates": [ -118.2650875, 34.0978188 ] } },
{ "type": "Feature", "properties": { "id": "Chee", "formatted_address": "850 W Willow St, Long Beach, CA 90806, United States", "articles": [ "WW6PGHQXKRFBVCMIITUWMNXLOA" ] }, "geometry": { "type": "Point", "coordinates": [ -118.2022481, 33.8041853 ] } },
{ "type": "Feature", "properties": { "id": "Taylor Yard Park", "formatted_address": "1900 N San Fernando Rd, Los Angeles, CA 90065, United States", "articles": [ "WW6PGHQXKRFBVCMIITUWMNXLOA" ] }, "geometry": { "type": "Point", "coordinates": [ -118.2358502, 34.098711 ] } },
{ "type": "Feature", "properties": { "id": "Frogtown", "formatted_address": "2931 Gilroy St, Los Angeles, CA 90039, United States", "articles": [ "WW6PGHQXKRFBVCMIITUWMNXLOA" ] }, "geometry": { "type": "Point", "coordinates": [ -118.2512965, 34.1070358 ] } },
{ "type": "Feature", "properties": { "id": "Line", "formatted_address": "6922 Hollywood Blvd #101, Los Angeles, CA 90028, United States", "articles": [ "NQ6S6BCD4BCKBJGIAZXMTVPG54", "NQ6S6BCD4BCKBJGIAZXMTVPG54" ] }, "geometry": { "type": "Point", "coordinates": [ -118.3407928, 34.1013599 ] } },
{ "type": "Feature", "properties": { "id": "The Academy Museum", "formatted_address": "6067 Wilshire Blvd, Los Angeles, CA 90036, United States", "articles": [ "NQ6S6BCD4BCKBJGIAZXMTVPG54" ] }, "geometry": { "type": "Point", "coordinates": [ -118.3607025, 34.0633655 ] } },
{ "type": "Feature", "properties": { "id": "Academy Museum of Motion Pictures", "formatted_address": "6067 Wilshire Blvd, Los Angeles, CA 90036, United States", "articles": [ "NQ6S6BCD4BCKBJGIAZXMTVPG54" ] }, "geometry": { "type": "Point", "coordinates": [ -118.3607025, 34.0633655 ] } },
{ "type": "Feature", "properties": { "id": "Saban Building", "formatted_address": "8440 Wilshire Blvd, Beverly Hills, CA 90211, United States", "articles": [ "NQ6S6BCD4BCKBJGIAZXMTVPG54" ] }, "geometry": { "type": "Point", "coordinates": [ -118.3748634, 34.0647255 ] } },
{ "type": "Feature", "properties": { "id": "May Company Building", "formatted_address": "830 S Hill St, Los Angeles, CA 90014, United States", "articles": [ "NQ6S6BCD4BCKBJGIAZXMTVPG54" ] }, "geometry": { "type": "Point", "coordinates": [ -118.2555609, 34.0436526 ] } },
{ "type": "Feature", "properties": { "id": "David Geffen Theatre", "formatted_address": "10886 Le Conte Ave, Los Angeles, CA 90024, United States", "articles": [ "NQ6S6BCD4BCKBJGIAZXMTVPG54" ] }, "geometry": { "type": "Point", "coordinates": [ -118.4443932, 34.0635118 ] } },
{ "type": "Feature", "properties": { "id": "Hollywood Sign", "formatted_address": "Los Angeles, CA 90068, United States", "articles": [ "NQ6S6BCD4BCKBJGIAZXMTVPG54" ] }, "geometry": { "type": "Point", "coordinates": [ -118.3215482, 34.1341151 ] } },
{ "type": "Feature", "properties": { "id": "Getty", "formatted_address": "1200 Getty Center Dr, Los Angeles, CA 90049, United States", "articles": [ "NQ6S6BCD4BCKBJGIAZXMTVPG54" ] }, "geometry": { "type": "Point", "coordinates": [ -118.4740954, 34.078035799999988 ] } },
{ "type": "Feature", "properties": { "id": "Geffen", "formatted_address": "10886 Le Conte Ave, Los Angeles, CA 90024, United States", "articles": [ "NQ6S6BCD4BCKBJGIAZXMTVPG54" ] }, "geometry": { "type": "Point", "coordinates": [ -118.4443932, 34.0635118 ] } },
{ "type": "Feature", "properties": { "id": "Shirley Temple Education Studio", "formatted_address": "6067 Wilshire Blvd, Los Angeles, CA 90036, United States", "articles": [ "NQ6S6BCD4BCKBJGIAZXMTVPG54" ] }, "geometry": { "type": "Point", "coordinates": [ -118.3607025, 34.0633655 ] } },
{ "type": "Feature", "properties": { "id": "Mid - Wilshire ' s Museum Row", "formatted_address": "5801 Wilshire Blvd, Los Angeles, CA 90036, United States", "articles": [ "NQ6S6BCD4BCKBJGIAZXMTVPG54" ] }, "geometry": { "type": "Point", "coordinates": [ -118.3555513, 34.0637612 ] } },
{ "type": "Feature", "properties": { "id": "Lucas Museum of Narrative Art", "formatted_address": "Exposition Park, Los Angeles, CA 90007, United States", "articles": [ "NQ6S6BCD4BCKBJGIAZXMTVPG54" ] }, "geometry": { "type": "Point", "coordinates": [ -118.2905363, 34.0165251 ] } },
{ "type": "Feature", "properties": { "id": "Lucas Museum", "formatted_address": "Exposition Park, Los Angeles, CA 90007, United States", "articles": [ "NQ6S6BCD4BCKBJGIAZXMTVPG54" ] }, "geometry": { "type": "Point", "coordinates": [ -118.2905363, 34.0165251 ] } },
{ "type": "Feature", "properties": { "id": "May Company", "formatted_address": "267 S D St, San Bernardino, CA 92401, United States", "articles": [ "NQ6S6BCD4BCKBJGIAZXMTVPG54" ] }, "geometry": { "type": "Point", "coordinates": [ -117.291425, 34.096562 ] } },
{ "type": "Feature", "properties": { "id": "L . A . City Hall", "formatted_address": "200 N Spring St, Los Angeles, CA 90012, United States", "articles": [ "NQ6S6BCD4BCKBJGIAZXMTVPG54" ] }, "geometry": { "type": "Point", "coordinates": [ -118.2426533, 34.0537136 ] } },
{ "type": "Feature", "properties": { "id": "May Building", "formatted_address": "830 S Hill St, Los Angeles, CA 90014, United States", "articles": [ "NQ6S6BCD4BCKBJGIAZXMTVPG54" ] }, "geometry": { "type": "Point", "coordinates": [ -118.2555609, 34.0436526 ] } },
{ "type": "Feature", "properties": { "id": "David Geffen Theater", "formatted_address": "10886 Le Conte Ave, Los Angeles, CA 90024, United States", "articles": [ "NQ6S6BCD4BCKBJGIAZXMTVPG54" ] }, "geometry": { "type": "Point", "coordinates": [ -118.4443932, 34.0635118 ] } },
{ "type": "Feature", "properties": { "id": "Wilshire and Fairfax", "formatted_address": "Los Angeles, CA, United States", "articles": [ "NQ6S6BCD4BCKBJGIAZXMTVPG54" ] }, "geometry": { "type": "Point", "coordinates": [ -118.3623196, 34.0630855 ] } },
{ "type": "Feature", "properties": { "id": "Miracle Mile area of L . A .", "formatted_address": "Miracle Mile, Los Angeles, CA, USA", "articles": [ "NQ6S6BCD4BCKBJGIAZXMTVPG54" ] }, "geometry": { "type": "Point", "coordinates": [ -118.3491169, 34.059534 ] } },
{ "type": "Feature", "properties": { "id": "from the Petersen Automotive Museum", "formatted_address": "6060 Wilshire Blvd, Los Angeles, CA 90036, United States", "articles": [ "NQ6S6BCD4BCKBJGIAZXMTVPG54" ] }, "geometry": { "type": "Point", "coordinates": [ -118.361649, 34.0621116 ] } },
{ "type": "Feature", "properties": { "id": "down the street from LACMA and the La Brea Tar Pits", "formatted_address": "5801 Wilshire Blvd, Los Angeles, CA 90036, United States", "articles": [ "NQ6S6BCD4BCKBJGIAZXMTVPG54" ] }, "geometry": { "type": "Point", "coordinates": [ -118.3555513, 34.0637612 ] } },
{ "type": "Feature", "properties": { "id": "LA", "formatted_address": "Los Angeles, CA, USA", "articles": [ "VWV7NPCRLNHZVLDDFRCGJETYJU" ] }, "geometry": { "type": "Point", "coordinates": [ -118.2436849, 34.0522342 ] } },
{ "type": "Feature", "properties": { "id": "Orange Coast College", "formatted_address": "2701 Fairview Rd, Costa Mesa, CA 92626, United States", "articles": [ "R34G6EGU3FEGJA7X4RXDSWXUDI", "R34G6EGU3FEGJA7X4RXDSWXUDI" ] }, "geometry": { "type": "Point", "coordinates": [ -117.9094073, 33.6700272 ] } },
{ "type": "Feature", "properties": { "id": "LAX", "formatted_address": "1 World Way, Los Angeles, CA 90045, United States", "articles": [ "R34G6EGU3FEGJA7X4RXDSWXUDI", "R34G6EGU3FEGJA7X4RXDSWXUDI", "R34G6EGU3FEGJA7X4RXDSWXUDI", "R34G6EGU3FEGJA7X4RXDSWXUDI" ] }, "geometry": { "type": "Point", "coordinates": [ -118.40853, 33.9415889 ] } },
{ "type": "Feature", "properties": { "id": "Bryant ' s Mamba Sports Academy in Thousand Oaks", "formatted_address": "1011 Rancho Conejo Blvd, Newbury Park, CA 91320, United States", "articles": [ "R34G6EGU3FEGJA7X4RXDSWXUDI", "R34G6EGU3FEGJA7X4RXDSWXUDI" ] }, "geometry": { "type": "Point", "coordinates": [ -118.923281, 34.1931458 ] } },
{ "type": "Feature", "properties": { "id": "Staples Center", "formatted_address": "1111 S Figueroa St, Los Angeles, CA 90015, United States", "articles": [ "R34G6EGU3FEGJA7X4RXDSWXUDI", "R34G6EGU3FEGJA7X4RXDSWXUDI" ] }, "geometry": { "type": "Point", "coordinates": [ -118.2672541, 34.0430175 ] } },
{ "type": "Feature", "properties": { "id": "Brea Imrov", "formatted_address": "180 S Brea Blvd, Brea, CA 92821, United States", "articles": [ "R34G6EGU3FEGJA7X4RXDSWXUDI" ] }, "geometry": { "type": "Point", "coordinates": [ -117.8988161, 33.9183358 ] } },
{ "type": "Feature", "properties": { "id": "North", "formatted_address": "2957 Michelson Dr, Irvine, CA 92612, United States", "articles": [ "R34G6EGU3FEGJA7X4RXDSWXUDI" ] }, "geometry": { "type": "Point", "coordinates": [ -117.8450172, 33.6717613 ] } },
{ "type": "Feature", "properties": { "id": "Las Virgenes Roads", "formatted_address": "Las Virgenes Rd, California, USA", "articles": [ "R34G6EGU3FEGJA7X4RXDSWXUDI" ] }, "geometry": { "type": "Point", "coordinates": [ -118.704108, 34.1272919 ] } },
{ "type": "Feature", "properties": { "id": "De Anza Park in Calabasas", "formatted_address": "3701 Lost Hills Rd, Agoura Hills, CA 91301, United States", "articles": [ "R34G6EGU3FEGJA7X4RXDSWXUDI" ] }, "geometry": { "type": "Point", "coordinates": [ -118.7079244, 34.1267576 ] } },
{ "type": "Feature", "properties": { "id": "Los Virgenes Road", "formatted_address": "Las Virgenes Rd, California, USA", "articles": [ "R34G6EGU3FEGJA7X4RXDSWXUDI" ] }, "geometry": { "type": "Point", "coordinates": [ -118.704108, 34.1272919 ] } },
{ "type": "Feature", "properties": { "id": "Willow Glen Street", "formatted_address": "Willow Glen St, Calabasas, CA 91302, USA", "articles": [ "R34G6EGU3FEGJA7X4RXDSWXUDI" ] }, "geometry": { "type": "Point", "coordinates": [ -118.7023634, 34.138098 ] } },
{ "type": "Feature", "properties": { "id": "The 2 Freeway", "formatted_address": "CA-2, California, USA", "articles": [ "3CIEWWAX2BGR7HQUT6OLUFYEHA" ] }, "geometry": { "type": "Point", "coordinates": [ -118.2000885, 34.2058544 ] } },
{ "type": "Feature", "properties": { "id": "Echo Park", "formatted_address": "Echo Park, Los Angeles, CA, USA", "articles": [ "3CIEWWAX2BGR7HQUT6OLUFYEHA" ] }, "geometry": { "type": "Point", "coordinates": [ -118.2567824, 34.0779819 ] } },
{ "type": "Feature", "properties": { "id": "San Gabriel Mountains", "formatted_address": "San Gabriel Mountains, California 91759, USA", "articles": [ "3CIEWWAX2BGR7HQUT6OLUFYEHA" ] }, "geometry": { "type": "Point", "coordinates": [ -117.6516063, 34.288004 ] } },
{ "type": "Feature", "properties": { "id": "Beverly Hills Freeway", "formatted_address": "7721 Beverly Blvd, Los Angeles, CA 90048, United States", "articles": [ "3CIEWWAX2BGR7HQUT6OLUFYEHA" ] }, "geometry": { "type": "Point", "coordinates": [ -118.358148, 34.076322 ] } },
{ "type": "Feature", "properties": { "id": "L . A . region", "formatted_address": "15444 Regalado St, Hacienda Heights, CA 91745, United States", "articles": [ "3CIEWWAX2BGR7HQUT6OLUFYEHA" ] }, "geometry": { "type": "Point", "coordinates": [ -117.9804505, 33.9935295 ] } },
{ "type": "Feature", "properties": { "id": "101", "formatted_address": "3030 W Olympic Blvd #216, Los Angeles, CA 90006, United States", "articles": [ "3CIEWWAX2BGR7HQUT6OLUFYEHA" ] }, "geometry": { "type": "Point", "coordinates": [ -118.3013531, 34.0523563 ] } },
{ "type": "Feature", "properties": { "id": "Silver Lake Boulevard and Sunset", "formatted_address": "Sunset Blvd & Silver Lake Blvd, Los Angeles, CA 90026, USA", "articles": [ "3CIEWWAX2BGR7HQUT6OLUFYEHA" ] }, "geometry": { "type": "Point", "coordinates": [ -118.2733752, 34.0829564 ] } },
{ "type": "Feature", "properties": { "id": "Channel Island Dive", "formatted_address": "1348 N Moorpark Rd Unit B, Thousand Oaks, CA 91360, United States", "articles": [ "57JKYPQJYJBRVAFBSWTM2D274M" ] }, "geometry": { "type": "Point", "coordinates": [ -118.8689298, 34.1960672 ] } },
{ "type": "Feature", "properties": { "id": "El Centro De Ayuda", "formatted_address": "2130 E 1st St #110, Los Angeles, CA 90033, United States", "articles": [ "TMZ5RL6NERDBNCTR6W7LYOTNUQ" ] }, "geometry": { "type": "Point", "coordinates": [ -118.212878, 34.044314 ] } },
{ "type": "Feature", "properties": { "id": "State", "formatted_address": "5151 State University Dr, Los Angeles, CA 90032, United States", "articles": [ "MWOLK3IMCBD5BIYSALMMQ7LLIU", "MWOLK3IMCBD5BIYSALMMQ7LLIU" ] }, "geometry": { "type": "Point", "coordinates": [ -118.1684392, 34.0667698 ] } },
{ "type": "Feature", "properties": { "id": "Twitter", "formatted_address": "150 Pico Blvd, Santa Monica, CA 90405, United States", "articles": [ "MWOLK3IMCBD5BIYSALMMQ7LLIU", "MWOLK3IMCBD5BIYSALMMQ7LLIU" ] }, "geometry": { "type": "Point", "coordinates": [ -118.4898259, 34.0075771 ] } },
{ "type": "Feature", "properties": { "id": "Chinese", "formatted_address": "1929 San Pedro St, Los Angeles, CA 90011, United States", "articles": [ "437W35XDDFHXJGDBP6LKP6UEWM" ] }, "geometry": { "type": "Point", "coordinates": [ -118.2582315, 34.0270752 ] } },
{ "type": "Feature", "properties": { "id": "San Gabriel Valley", "formatted_address": "San Gabriel Valley, Avocado Heights, CA 90601, USA", "articles": [ "437W35XDDFHXJGDBP6LKP6UEWM" ] }, "geometry": { "type": "Point", "coordinates": [ -118.0370113, 34.0333443 ] } },
{ "type": "Feature", "properties": { "id": "99 Ranch", "formatted_address": "6450 Sepulveda Blvd, Van Nuys, CA 91411, United States", "articles": [ "437W35XDDFHXJGDBP6LKP6UEWM" ] }, "geometry": { "type": "Point", "coordinates": [ -118.465273, 34.1880542 ] } },
{ "type": "Feature", "properties": { "id": "168 Market", "formatted_address": "19725 Colima Rd, Rowland Heights, CA 91748, United States", "articles": [ "437W35XDDFHXJGDBP6LKP6UEWM" ] }, "geometry": { "type": "Point", "coordinates": [ -117.8721084, 33.9876747 ] } },
{ "type": "Feature", "properties": { "id": "Shun Fat", "formatted_address": "2650 Rosemead Blvd, South El Monte, CA 91733, United States", "articles": [ "437W35XDDFHXJGDBP6LKP6UEWM" ] }, "geometry": { "type": "Point", "coordinates": [ -118.0634808, 34.0599698 ] } },
{ "type": "Feature", "properties": { "id": "canyon", "formatted_address": "2000 N Fuller Ave, Los Angeles, CA 90046, United States", "articles": [ "7ZKPDDPKVFCYJKHGVSWLQYE2RU" ] }, "geometry": { "type": "Point", "coordinates": [ -118.3489574, 34.1052437 ] } },
{ "type": "Feature", "properties": { "id": "John Wayne Airport in Orange County", "formatted_address": "18601 Airport Way, Santa Ana, CA 92707, United States", "articles": [ "7ZKPDDPKVFCYJKHGVSWLQYE2RU" ] }, "geometry": { "type": "Point", "coordinates": [ -117.8674759, 33.6761901 ] } },
{ "type": "Feature", "properties": { "id": "I - 5 corridor", "formatted_address": "I-5, United States", "articles": [ "7ZKPDDPKVFCYJKHGVSWLQYE2RU" ] }, "geometry": { "type": "Point", "coordinates": [ -118.2214459, 34.0804287 ] } },
{ "type": "Feature", "properties": { "id": "Burbank airport", "formatted_address": "2627 N Hollywood Way, Burbank, CA 91505, United States", "articles": [ "7ZKPDDPKVFCYJKHGVSWLQYE2RU" ] }, "geometry": { "type": "Point", "coordinates": [ -118.3574036, 34.1983122 ] } },
{ "type": "Feature", "properties": { "id": "Van Nuys airspace", "formatted_address": "16461 Sherman Way, Van Nuys, CA 91406, United States", "articles": [ "7ZKPDDPKVFCYJKHGVSWLQYE2RU" ] }, "geometry": { "type": "Point", "coordinates": [ -118.4896448, 34.2096399 ] } },
{ "type": "Feature", "properties": { "id": "John Wayne", "formatted_address": "18601 Airport Way, Santa Ana, CA 92707, United States", "articles": [ "7ZKPDDPKVFCYJKHGVSWLQYE2RU" ] }, "geometry": { "type": "Point", "coordinates": [ -117.8674759, 33.6761901 ] } },
{ "type": "Feature", "properties": { "id": "Burbank and Van Nuys ' airspace", "formatted_address": "Los Angeles, CA 91401, United States", "articles": [ "7ZKPDDPKVFCYJKHGVSWLQYE2RU" ] }, "geometry": { "type": "Point", "coordinates": [ -118.4482231, 34.1720096 ] } },
{ "type": "Feature", "properties": { "id": "Cal", "formatted_address": "18111 Nordhoff St, Northridge, CA 91330, United States", "articles": [ "RFDIUWUOKZFVBEVPQYOTUJUBAA" ] }, "geometry": { "type": "Point", "coordinates": [ -118.5276745, 34.2410366 ] } },
{ "type": "Feature", "properties": { "id": "Long Beach high schools", "formatted_address": "1600 Atlantic Ave, Long Beach, CA 90813, United States", "articles": [ "RFDIUWUOKZFVBEVPQYOTUJUBAA" ] }, "geometry": { "type": "Point", "coordinates": [ -118.1829363, 33.7868045 ] } },
{ "type": "Feature", "properties": { "id": "L . A . Unified", "formatted_address": "Los Angeles Unified School District, CA, USA", "articles": [ "RFDIUWUOKZFVBEVPQYOTUJUBAA" ] }, "geometry": { "type": "Point", "coordinates": [ -118.4396756, 34.1825782 ] } },
{ "type": "Feature", "properties": { "id": "Long Beach Unified", "formatted_address": "1515 Hughes Way, Long Beach, CA 90810, United States", "articles": [ "RFDIUWUOKZFVBEVPQYOTUJUBAA" ] }, "geometry": { "type": "Point", "coordinates": [ -118.2138076, 33.8289804 ] } },
{ "type": "Feature", "properties": { "id": "LA ' s Oldest Hospitals", "formatted_address": "438 W Las Tunas Dr, San Gabriel, CA 91776, United States", "articles": [ "ROGW5SUXOJHNNE4MOBWHDLGI3I" ] }, "geometry": { "type": "Point", "coordinates": [ -118.1058514, 34.1009828 ] } },
{ "type": "Feature", "properties": { "id": "St . Vincent", "formatted_address": "2333 S Figueroa St, Los Angeles, CA 90007, United States", "articles": [ "ROGW5SUXOJHNNE4MOBWHDLGI3I" ] }, "geometry": { "type": "Point", "coordinates": [ -118.2756271, 34.0303916 ] } },
{ "type": "Feature", "properties": { "id": "UCLA", "formatted_address": "Los Angeles, CA 90095, United States", "articles": [ "36JSZ2QEKNGHPME3MDPWOMHVNQ", "36JSZ2QEKNGHPME3MDPWOMHVNQ" ] }, "geometry": { "type": "Point", "coordinates": [ -118.4451811, 34.068921 ] } },
{ "type": "Feature", "properties": { "id": "SoCal Museums", "formatted_address": "900 W Exposition Blvd, Los Angeles, CA 90007, United States", "articles": [ "36JSZ2QEKNGHPME3MDPWOMHVNQ" ] }, "geometry": { "type": "Point", "coordinates": [ -118.2887703, 34.0169567 ] } },
{ "type": "Feature", "properties": { "id": "Skirball Cultural Center", "formatted_address": "2701 N Sepulveda Blvd, Los Angeles, CA 90049, United States", "articles": [ "36JSZ2QEKNGHPME3MDPWOMHVNQ" ] }, "geometry": { "type": "Point", "coordinates": [ -118.4791719, 34.1249893 ] } },
{ "type": "Feature", "properties": { "id": "Museums", "formatted_address": "5905 Wilshire Blvd, Los Angeles, CA 90036, United States", "articles": [ "36JSZ2QEKNGHPME3MDPWOMHVNQ" ] }, "geometry": { "type": "Point", "coordinates": [ -118.3592293, 34.0639323 ] } },
{ "type": "Feature", "properties": { "id": "Ceramic Art", "formatted_address": "399 N Garey Ave, Pomona, CA 91767, United States", "articles": [ "36JSZ2QEKNGHPME3MDPWOMHVNQ" ] }, "geometry": { "type": "Point", "coordinates": [ -117.7506884, 34.0613286 ] } },
{ "type": "Feature", "properties": { "id": "610 Lairport St .", "formatted_address": "610 Lairport St, El Segundo, CA 90245, USA", "articles": [ "36JSZ2QEKNGHPME3MDPWOMHVNQ" ] }, "geometry": { "type": "Point", "coordinates": [ -118.3921201, 33.9246249 ] } },
{ "type": "Feature", "properties": { "id": "4700 Western Heritage Way , Los Angeles", "formatted_address": "4700 Western Heritage Way, Los Angeles, CA 90027, USA", "articles": [ "36JSZ2QEKNGHPME3MDPWOMHVNQ" ] }, "geometry": { "type": "Point", "coordinates": [ -118.2812551, 34.1487135 ] } },
{ "type": "Feature", "properties": { "id": "Griffith Park )", "formatted_address": "4730 Crystal Springs Dr, Los Angeles, CA 90027, United States", "articles": [ "36JSZ2QEKNGHPME3MDPWOMHVNQ" ] }, "geometry": { "type": "Point", "coordinates": [ -118.2942, 34.1365544 ] } },
{ "type": "Feature", "properties": { "id": "North Main Street , Santa Ana", "formatted_address": "N Main St, Santa Ana, CA, USA", "articles": [ "36JSZ2QEKNGHPME3MDPWOMHVNQ" ] }, "geometry": { "type": "Point", "coordinates": [ -117.867573, 33.7600895 ] } },
{ "type": "Feature", "properties": { "id": "Cayton", "formatted_address": "395 Santa Monica Pl Suite 374, Santa Monica, CA 90401, United States", "articles": [ "36JSZ2QEKNGHPME3MDPWOMHVNQ" ] }, "geometry": { "type": "Point", "coordinates": [ -118.4936638, 34.0145333 ] } },
{ "type": "Feature", "properties": { "id": "Museum", "formatted_address": "5905 Wilshire Blvd, Los Angeles, CA 90036, United States", "articles": [ "36JSZ2QEKNGHPME3MDPWOMHVNQ" ] }, "geometry": { "type": "Point", "coordinates": [ -118.3592293, 34.0639323 ] } },
{ "type": "Feature", "properties": { "id": "395 Santa Monica Place", "formatted_address": "395 Santa Monica Pl, Santa Monica, CA 90401, United States", "articles": [ "36JSZ2QEKNGHPME3MDPWOMHVNQ" ] }, "geometry": { "type": "Point", "coordinates": [ -118.494041, 34.0138581 ] } },
{ "type": "Feature", "properties": { "id": "Forest Lawn Museum", "formatted_address": "1712 S Glendale Ave, Glendale, CA 91205, United States", "articles": [ "36JSZ2QEKNGHPME3MDPWOMHVNQ" ] }, "geometry": { "type": "Point", "coordinates": [ -118.245868, 34.128533 ] } },
{ "type": "Feature", "properties": { "id": "Getty Center", "formatted_address": "1200 Getty Center Dr, Los Angeles, CA 90049, United States", "articles": [ "36JSZ2QEKNGHPME3MDPWOMHVNQ" ] }, "geometry": { "type": "Point", "coordinates": [ -118.4740954, 34.078035799999988 ] } },
{ "type": "Feature", "properties": { "id": "100 N . Central Ave . , Los Angeles", "formatted_address": "100 N Central Ave, Los Angeles, CA 90012, USA", "articles": [ "36JSZ2QEKNGHPME3MDPWOMHVNQ" ] }, "geometry": { "type": "Point", "coordinates": [ -118.2385001, 34.0494674 ] } },
{ "type": "Feature", "properties": { "id": "The Grove Dr .", "formatted_address": "The Grove Dr, Los Angeles, CA 90036, USA", "articles": [ "36JSZ2QEKNGHPME3MDPWOMHVNQ" ] }, "geometry": { "type": "Point", "coordinates": [ -118.3563394, 34.0735427 ] } },
{ "type": "Feature", "properties": { "id": "250 Grand Ave . , Los Angeles", "formatted_address": "250 N Grand Ave, Los Angeles, CA 90012, USA", "articles": [ "36JSZ2QEKNGHPME3MDPWOMHVNQ" ] }, "geometry": { "type": "Point", "coordinates": [ -118.247093, 34.0575918 ] } },
{ "type": "Feature", "properties": { "id": "1201 W . Malvern Ave , Fullerton", "formatted_address": "1201 W Malvern Ave, Fullerton, CA 92833, USA", "articles": [ "36JSZ2QEKNGHPME3MDPWOMHVNQ" ] }, "geometry": { "type": "Point", "coordinates": [ -117.9439845, 33.875803 ] } },
{ "type": "Feature", "properties": { "id": "1661 W . Sunflower Ave .", "formatted_address": "1661 W Sunflower Ave, Santa Ana, CA 92704, USA", "articles": [ "36JSZ2QEKNGHPME3MDPWOMHVNQ" ] }, "geometry": { "type": "Point", "coordinates": [ -117.8911798, 33.6953527 ] } },
{ "type": "Feature", "properties": { "id": "Pomona College Museum of Art", "formatted_address": "330 N College Ave, Claremont, CA 91711, United States", "articles": [ "36JSZ2QEKNGHPME3MDPWOMHVNQ" ] }, "geometry": { "type": "Point", "coordinates": [ -117.714385, 34.0968983 ] } },
{ "type": "Feature", "properties": { "id": "Santa", "formatted_address": "200 Santa Monica Pier, Santa Monica, CA 90401, United States", "articles": [ "36JSZ2QEKNGHPME3MDPWOMHVNQ" ] }, "geometry": { "type": "Point", "coordinates": [ -118.4960063, 34.0099215 ] } },
{ "type": "Feature", "properties": { "id": "USC Pacific Asia Museum", "formatted_address": "46 N Los Robles Ave, Pasadena, CA 91101, United States", "articles": [ "36JSZ2QEKNGHPME3MDPWOMHVNQ" ] }, "geometry": { "type": "Point", "coordinates": [ -118.1410259, 34.146669 ] } },
{ "type": "Feature", "properties": { "id": "46 North Los Robles Ave .", "formatted_address": "46 N Los Robles Ave, Pasadena, CA 91101, USA", "articles": [ "36JSZ2QEKNGHPME3MDPWOMHVNQ" ] }, "geometry": { "type": "Point", "coordinates": [ -118.1408404, 34.1467237 ] } },
{ "type": "Feature", "properties": { "id": "SoCal", "formatted_address": "1630 N Vermont Ave, Los Angeles, CA 90027, United States", "articles": [ "36JSZ2QEKNGHPME3MDPWOMHVNQ" ] }, "geometry": { "type": "Point", "coordinates": [ -118.2913684, 34.1005415 ] } },
{ "type": "Feature", "properties": { "id": "Autry", "formatted_address": "Griffith Park, 4700 Western Heritage Way, Los Angeles, CA 90027, United States", "articles": [ "36JSZ2QEKNGHPME3MDPWOMHVNQ" ] }, "geometry": { "type": "Point", "coordinates": [ -118.281213, 34.14862 ] } },
{ "type": "Feature", "properties": { "id": "Columbia Way , Downey", "formatted_address": "Columbia Way, Downey, CA 90242, USA", "articles": [ "36JSZ2QEKNGHPME3MDPWOMHVNQ" ] }, "geometry": { "type": "Point", "coordinates": [ -118.1341307, 33.9160158 ] } },
{ "type": "Feature", "properties": { "id": "Pacific Coast Hwy .", "formatted_address": "Coast Hwy, Laguna Beach, CA 92651, USA", "articles": [ "36JSZ2QEKNGHPME3MDPWOMHVNQ" ] }, "geometry": { "type": "Point", "coordinates": [ -117.7467797, 33.5053022 ] } },
{ "type": "Feature", "properties": { "id": "88 Fair Drive , Costa Mesa", "formatted_address": "88 Fair Dr, Costa Mesa, CA 92626, USA", "articles": [ "36JSZ2QEKNGHPME3MDPWOMHVNQ" ] }, "geometry": { "type": "Point", "coordinates": [ -117.9046818, 33.6683871 ] } },
{ "type": "Feature", "properties": { "id": "OC Fair & Event Center", "formatted_address": "88 Fair Dr, Costa Mesa, CA 92626, United States", "articles": [ "36JSZ2QEKNGHPME3MDPWOMHVNQ" ] }, "geometry": { "type": "Point", "coordinates": [ -117.9027196, 33.6657383 ] } },
{ "type": "Feature", "properties": { "id": "Bellflower Blvd , Bellflower", "formatted_address": "Bellflower Blvd, Bellflower, CA, USA", "articles": [ "36JSZ2QEKNGHPME3MDPWOMHVNQ" ] }, "geometry": { "type": "Point", "coordinates": [ -118.125293, 33.8875538 ] } },
{ "type": "Feature", "properties": { "id": "Museum of Contemporary Art , Los Angeles", "formatted_address": "250 S Grand Ave, Los Angeles, CA 90012, United States", "articles": [ "36JSZ2QEKNGHPME3MDPWOMHVNQ" ] }, "geometry": { "type": "Point", "coordinates": [ -118.2503598, 34.0533437 ] } },
{ "type": "Feature", "properties": { "id": "N . College Ave .", "formatted_address": "1325 N College Ave, Claremont, CA 91711, United States", "articles": [ "36JSZ2QEKNGHPME3MDPWOMHVNQ" ] }, "geometry": { "type": "Point", "coordinates": [ -117.7161284, 34.1080016 ] } },
{ "type": "Feature", "properties": { "id": "LA", "formatted_address": "Los Angeles, CA, USA", "articles": [ "J6AQDB6CVNEPLPH4M4AGV2IMIM" ] }, "geometry": { "type": "Point", "coordinates": [ -118.2436849, 34.0522342 ] } },
{ "type": "Feature", "properties": { "id": "RANDOM", "formatted_address": "200 N Avenue 64, Los Angeles, CA 90042, United States", "articles": [ "J6AQDB6CVNEPLPH4M4AGV2IMIM" ] }, "geometry": { "type": "Point", "coordinates": [ -118.1805724, 34.1154425 ] } },
{ "type": "Feature", "properties": { "id": "LA", "formatted_address": "Los Angeles, CA, USA", "articles": [ "E3PBBEHESVG3NGLG2IRGLJJQ64" ] }, "geometry": { "type": "Point", "coordinates": [ -118.2436849, 34.0522342 ] } },
{ "type": "Feature", "properties": { "id": "Shoe Palace store", "formatted_address": "1068 Plaza Dr #1068, West Covina, CA 91790, United States", "articles": [ "SSDFBRZQA5A7RE3TBCAYTCLIAE" ] }, "geometry": { "type": "Point", "coordinates": [ -117.9311523, 34.0706021 ] } },
{ "type": "Feature", "properties": { "id": "Melrose Avenue", "formatted_address": "Melrose Ave, California, USA", "articles": [ "SSDFBRZQA5A7RE3TBCAYTCLIAE" ] }, "geometry": { "type": "Point", "coordinates": [ -118.3366144, 34.0834706 ] } },
{ "type": "Feature", "properties": { "id": "UCLA Health Training Center", "formatted_address": "2275 E Mariposa Ave, El Segundo, CA 90245, United States", "articles": [ "SSDFBRZQA5A7RE3TBCAYTCLIAE" ] }, "geometry": { "type": "Point", "coordinates": [ -118.3839951, 33.9244959 ] } },
{ "type": "Feature", "properties": { "id": "Central Jail", "formatted_address": "550 N Flower St, Santa Ana, CA 92703, United States", "articles": [ "ZQFHDJPYRZFHJD7F5TDY2ERIKA" ] }, "geometry": { "type": "Point", "coordinates": [ -117.8774523, 33.7489556 ] } },
{ "type": "Feature", "properties": { "id": "Mundo", "formatted_address": "329 S D St, Perris, CA 92570, United States", "articles": [ "ZQFHDJPYRZFHJD7F5TDY2ERIKA" ] }, "geometry": { "type": "Point", "coordinates": [ -117.2283473, 33.7826908 ] } },
{ "type": "Feature", "properties": { "id": "La Luz Del Mundo", "formatted_address": "112 N Arizona Ave, Los Angeles, CA 90022, United States", "articles": [ "ZQFHDJPYRZFHJD7F5TDY2ERIKA" ] }, "geometry": { "type": "Point", "coordinates": [ -118.1632484, 34.0371977 ] } },
{ "type": "Feature", "properties": { "id": "East L . A .", "formatted_address": "East Los Angeles, CA, USA", "articles": [ "ZQFHDJPYRZFHJD7F5TDY2ERIKA" ] }, "geometry": { "type": "Point", "coordinates": [ -118.1669736, 34.0224417 ] } },
{ "type": "Feature", "properties": { "id": "LA LUZ DEL MUNDO ?", "formatted_address": "112 N Arizona Ave, Los Angeles, CA 90022, United States", "articles": [ "ZQFHDJPYRZFHJD7F5TDY2ERIKA" ] }, "geometry": { "type": "Point", "coordinates": [ -118.1632484, 34.0371977 ] } },
{ "type": "Feature", "properties": { "id": "Mexico '", "formatted_address": "11531 La Mirada Blvd, La Mirada, CA 90638, United States", "articles": [ "ZQFHDJPYRZFHJD7F5TDY2ERIKA" ] }, "geometry": { "type": "Point", "coordinates": [ -118.012277, 33.9259356 ] } },
{ "type": "Feature", "properties": { "id": "Catholic", "formatted_address": "12704 Foothill Blvd, Rancho Cucamonga, CA 91739, United States", "articles": [ "ZQFHDJPYRZFHJD7F5TDY2ERIKA" ] }, "geometry": { "type": "Point", "coordinates": [ -117.5284279, 34.1067989 ] } },
{ "type": "Feature", "properties": { "id": "La", "formatted_address": "Los Angeles, CA, USA", "articles": [ "ZQFHDJPYRZFHJD7F5TDY2ERIKA" ] }, "geometry": { "type": "Point", "coordinates": [ -118.2436849, 34.0522342 ] } },
{ "type": "Feature", "properties": { "id": "Del", "formatted_address": "14200 US-395, Adelanto, CA 92301, United States", "articles": [ "ZQFHDJPYRZFHJD7F5TDY2ERIKA" ] }, "geometry": { "type": "Point", "coordinates": [ -117.39998, 34.508456 ] } },
{ "type": "Feature", "properties": { "id": "La Luz del Mundo ' s", "formatted_address": "12401 Pellissier Rd, Whittier, CA 90601, United States", "articles": [ "ZQFHDJPYRZFHJD7F5TDY2ERIKA" ] }, "geometry": { "type": "Point", "coordinates": [ -118.0316296, 34.0340823 ] } },
{ "type": "Feature", "properties": { "id": "Anderson &", "formatted_address": "515 Flower St # 3500, Los Angeles, CA 90071, United States", "articles": [ "ZQFHDJPYRZFHJD7F5TDY2ERIKA" ] }, "geometry": { "type": "Point", "coordinates": [ -118.2567698, 34.0514139 ] } },
{ "type": "Feature", "properties": { "id": "Central District of California", "formatted_address": "321 E 2nd St, Los Angeles, CA 90012, United States", "articles": [ "ZQFHDJPYRZFHJD7F5TDY2ERIKA" ] }, "geometry": { "type": "Point", "coordinates": [ -118.2409992, 34.0491225 ] } },
{ "type": "Feature", "properties": { "id": "Santa Cena", "formatted_address": "18302 Sierra Hwy, Santa Clarita, CA 91351, United States", "articles": [ "ZQFHDJPYRZFHJD7F5TDY2ERIKA" ] }, "geometry": { "type": "Point", "coordinates": [ -118.4526774, 34.4193397 ] } },
{ "type": "Feature", "properties": { "id": "headquarters", "formatted_address": "6214 W 87th St, Los Angeles, CA 90045, United States", "articles": [ "ZQFHDJPYRZFHJD7F5TDY2ERIKA" ] }, "geometry": { "type": "Point", "coordinates": [ -118.3940874, 33.9584272 ] } },
{ "type": "Feature", "properties": { "id": "Guadalajara", "formatted_address": "1134 W Mission Blvd, Pomona, CA 91766, United States", "articles": [ "ZQFHDJPYRZFHJD7F5TDY2ERIKA" ] }, "geometry": { "type": "Point", "coordinates": [ -117.7641754, 34.0543632 ] } },
{ "type": "Feature", "properties": { "id": "Casitas Ave", "formatted_address": "Casitas Ave, Los Angeles, CA 90039, USA", "articles": [ "BO7CJAKGNNC7DFPLY36QVBSODE" ] }, "geometry": { "type": "Point", "coordinates": [ -118.2513217, 34.1155661 ] } },
{ "type": "Feature", "properties": { "id": "Writers Guild Theater", "formatted_address": "135 S Doheny Dr, Beverly Hills, CA 90211, United States", "articles": [ "BO7CJAKGNNC7DFPLY36QVBSODE" ] }, "geometry": { "type": "Point", "coordinates": [ -118.3899072, 34.0659257 ] } },
{ "type": "Feature", "properties": { "id": "135 South Doheny Dr . , Beverly Hills", "formatted_address": "135 S Doheny Dr, Beverly Hills, CA 90211, USA", "articles": [ "BO7CJAKGNNC7DFPLY36QVBSODE" ] }, "geometry": { "type": "Point", "coordinates": [ -118.3899291, 34.0658644 ] } },
{ "type": "Feature", "properties": { "id": "Matrix", "formatted_address": "1050 E Valencia Dr, Fullerton, CA 92831, United States", "articles": [ "BO7CJAKGNNC7DFPLY36QVBSODE" ] }, "geometry": { "type": "Point", "coordinates": [ -117.9102172, 33.8664245 ] } },
{ "type": "Feature", "properties": { "id": "Friend ' s Place", "formatted_address": "3533 W 58th Pl, Los Angeles, CA 90043, United States", "articles": [ "BO7CJAKGNNC7DFPLY36QVBSODE" ] }, "geometry": { "type": "Point", "coordinates": [ -118.334148, 33.988368 ] } },
{ "type": "Feature", "properties": { "id": "Annenberg Center for the Performing Arts", "formatted_address": "9390 N Santa Monica Blvd, Beverly Hills, CA 90210, United States", "articles": [ "BO7CJAKGNNC7DFPLY36QVBSODE" ] }, "geometry": { "type": "Point", "coordinates": [ -118.4017355, 34.0724741 ] } },
{ "type": "Feature", "properties": { "id": "Four Larks", "formatted_address": "Palmdale, CA 93550, United States", "articles": [ "BO7CJAKGNNC7DFPLY36QVBSODE" ] }, "geometry": { "type": "Point", "coordinates": [ -118.0057775, 34.3166567 ] } },
{ "type": "Feature", "properties": { "id": "East Hollywood", "formatted_address": "East Hollywood, Los Angeles, CA, USA", "articles": [ "BO7CJAKGNNC7DFPLY36QVBSODE" ] }, "geometry": { "type": "Point", "coordinates": [ -118.2966254, 34.0904277 ] } },
{ "type": "Feature", "properties": { "id": "802 S . Hill St . , downtown L . A .", "formatted_address": "802 S Spring St, Los Angeles, CA 90014, United States", "articles": [ "BO7CJAKGNNC7DFPLY36QVBSODE" ] }, "geometry": { "type": "Point", "coordinates": [ -118.2534232, 34.0427663 ] } },
{ "type": "Feature", "properties": { "id": "9500 Wilshire Blvd . , Beverly Hills", "formatted_address": "9500 Wilshire Blvd, Beverly Hills, CA 90212, USA", "articles": [ "BO7CJAKGNNC7DFPLY36QVBSODE" ] }, "geometry": { "type": "Point", "coordinates": [ -118.4001931, 34.0670787 ] } },
{ "type": "Feature", "properties": { "id": "Paley Center", "formatted_address": "9390 N Santa Monica Blvd, Beverly Hills, CA 90210, United States", "articles": [ "BO7CJAKGNNC7DFPLY36QVBSODE" ] }, "geometry": { "type": "Point", "coordinates": [ -118.4017355, 34.0724741 ] } },
{ "type": "Feature", "properties": { "id": "Silver Lake Blvd .", "formatted_address": "Silver Lake Blvd, Los Angeles, CA, USA", "articles": [ "BO7CJAKGNNC7DFPLY36QVBSODE" ] }, "geometry": { "type": "Point", "coordinates": [ -118.2658486, 34.0919164 ] } },
{ "type": "Feature", "properties": { "id": "The Second City", "formatted_address": "6560 Hollywood Blvd, Los Angeles, CA 90028, United States", "articles": [ "BO7CJAKGNNC7DFPLY36QVBSODE" ] }, "geometry": { "type": "Point", "coordinates": [ -118.333036, 34.1014328 ] } },
{ "type": "Feature", "properties": { "id": "6560 Hollywood Blvd .", "formatted_address": "6560 Hollywood Blvd, Los Angeles, CA 90028, United States", "articles": [ "BO7CJAKGNNC7DFPLY36QVBSODE" ] }, "geometry": { "type": "Point", "coordinates": [ -118.333036, 34.1014328 ] } },
{ "type": "Feature", "properties": { "id": "Museum L . A .", "formatted_address": "5905 Wilshire Blvd, Los Angeles, CA 90036, United States", "articles": [ "BO7CJAKGNNC7DFPLY36QVBSODE" ] }, "geometry": { "type": "Point", "coordinates": [ -118.3592293, 34.0639323 ] } },
{ "type": "Feature", "properties": { "id": "Lodge Room", "formatted_address": "104 N Ave 56 2nd floor, Los Angeles, CA 90042, United States", "articles": [ "BO7CJAKGNNC7DFPLY36QVBSODE" ] }, "geometry": { "type": "Point", "coordinates": [ -118.1945691, 34.1091167 ] } },
{ "type": "Feature", "properties": { "id": "Malibu Playhouse in Malibu", "formatted_address": "29243 Pacific Coast Hwy, Malibu, CA 90265, United States", "articles": [ "BO7CJAKGNNC7DFPLY36QVBSODE" ] }, "geometry": { "type": "Point", "coordinates": [ -118.8118779, 34.0214413 ] } },
{ "type": "Feature", "properties": { "id": "E . 3rd St . , downtown L . A .", "formatted_address": "425 Boyd St, Los Angeles, CA 90013, United States", "articles": [ "BO7CJAKGNNC7DFPLY36QVBSODE" ] }, "geometry": { "type": "Point", "coordinates": [ -118.2421295, 34.046693 ] } },
{ "type": "Feature", "properties": { "id": "L . A . Phil", "formatted_address": "151 S Grand Ave, Los Angeles, CA 90012, United States", "articles": [ "BO7CJAKGNNC7DFPLY36QVBSODE" ] }, "geometry": { "type": "Point", "coordinates": [ -118.2496987, 34.0549978 ] } },
{ "type": "Feature", "properties": { "id": "L . A . Phil '", "formatted_address": "151 S Grand Ave, Los Angeles, CA 90012, United States", "articles": [ "BO7CJAKGNNC7DFPLY36QVBSODE" ] }, "geometry": { "type": "Point", "coordinates": [ -118.2496987, 34.0549978 ] } },
{ "type": "Feature", "properties": { "id": "Weimar Republic", "formatted_address": "1200 Getty Center Dr, Los Angeles, CA 90049, United States", "articles": [ "BO7CJAKGNNC7DFPLY36QVBSODE" ] }, "geometry": { "type": "Point", "coordinates": [ -118.4740954, 34.078035799999988 ] } },
{ "type": "Feature", "properties": { "id": "Nordhoff St , Northridge", "formatted_address": "Nordhoff St, Los Angeles, CA, USA", "articles": [ "BO7CJAKGNNC7DFPLY36QVBSODE" ] }, "geometry": { "type": "Point", "coordinates": [ -118.5231812, 34.2357046 ] } },
{ "type": "Feature", "properties": { "id": "Staples", "formatted_address": "5407 Wilshire Blvd, Los Angeles, CA 90036, United States", "articles": [ "BO7CJAKGNNC7DFPLY36QVBSODE" ] }, "geometry": { "type": "Point", "coordinates": [ -118.3469597, 34.0624726 ] } },
{ "type": "Feature", "properties": { "id": "Second City Hollywood", "formatted_address": "6560 Hollywood Blvd, Los Angeles, CA 90028, United States", "articles": [ "BO7CJAKGNNC7DFPLY36QVBSODE" ] }, "geometry": { "type": "Point", "coordinates": [ -118.333036, 34.1014328 ] } },
{ "type": "Feature", "properties": { "id": "6560 Hollywood Blvd . , Hollywood", "formatted_address": "6560 Hollywood Blvd, Los Angeles, CA 90028, USA", "articles": [ "BO7CJAKGNNC7DFPLY36QVBSODE" ] }, "geometry": { "type": "Point", "coordinates": [ -118.3331053, 34.1013467 ] } },
{ "type": "Feature", "properties": { "id": "Brentwood Pharmacy", "formatted_address": "2530-B San Vicente Blvd, Santa Monica, CA 90402, United States", "articles": [ "LJ4ZP5J3XBHZBPKEA6RYKJ23GU" ] }, "geometry": { "type": "Point", "coordinates": [ -118.4915757, 34.0479304 ] } },
{ "type": "Feature", "properties": { "id": "Tom Bradley International Terminal", "formatted_address": "Tom Bradley International Terminal, 1 World Way, Los Angeles, CA 90045, USA", "articles": [ "LJ4ZP5J3XBHZBPKEA6RYKJ23GU" ] }, "geometry": { "type": "Point", "coordinates": [ -118.4093731, 33.9436059 ] } },
{ "type": "Feature", "properties": { "id": "CVS Pharmacy , 11941 San Vincente Blvd .", "formatted_address": "11941 San Vicente Blvd, Los Angeles, CA 90049, United States", "articles": [ "LJ4ZP5J3XBHZBPKEA6RYKJ23GU" ] }, "geometry": { "type": "Point", "coordinates": [ -118.47098, 34.05314 ] } },
{ "type": "Feature", "properties": { "id": "Los Angeles International Airport", "formatted_address": "1 World Way, Los Angeles, CA 90045, United States", "articles": [ "LJ4ZP5J3XBHZBPKEA6RYKJ23GU" ] }, "geometry": { "type": "Point", "coordinates": [ -118.40853, 33.9415889 ] } },
{ "type": "Feature", "properties": { "id": "FRIDAY", "formatted_address": "6721 La Tijera Blvd, Los Angeles, CA 90045, United States", "articles": [ "N6CFXR53IRHEDNWYAZCNHPUYGM" ] }, "geometry": { "type": "Point", "coordinates": [ -118.3716593, 33.9778908 ] } },
{ "type": "Feature", "properties": { "id": "N . Los Robles Ave . , Pasadena", "formatted_address": "N Los Robles Ave, Pasadena, CA, USA", "articles": [ "N6CFXR53IRHEDNWYAZCNHPUYGM" ] }, "geometry": { "type": "Point", "coordinates": [ -118.1415606, 34.1637783 ] } },
{ "type": "Feature", "properties": { "id": "The Egyptian Theatre", "formatted_address": "6712 Hollywood Blvd, Los Angeles, CA 90028, United States", "articles": [ "N6CFXR53IRHEDNWYAZCNHPUYGM" ] }, "geometry": { "type": "Point", "coordinates": [ -118.3366101, 34.1009124 ] } },
{ "type": "Feature", "properties": { "id": "6712 Hollywood Blvd . , Hollywood", "formatted_address": "6712 Hollywood Blvd, Los Angeles, CA 90028, USA", "articles": [ "N6CFXR53IRHEDNWYAZCNHPUYGM" ] }, "geometry": { "type": "Point", "coordinates": [ -118.3366973, 34.1014273 ] } },
{ "type": "Feature", "properties": { "id": "100 N . Central Ave .", "formatted_address": "100N N Beaudry Ave, Los Angeles, CA 90012, United States", "articles": [ "N6CFXR53IRHEDNWYAZCNHPUYGM" ] }, "geometry": { "type": "Point", "coordinates": [ -118.2536489, 34.059184 ] } },
{ "type": "Feature", "properties": { "id": "APL", "formatted_address": "180 E Ocean Blvd # 800, Long Beach, CA 90802, United States", "articles": [ "N6CFXR53IRHEDNWYAZCNHPUYGM" ] }, "geometry": { "type": "Point", "coordinates": [ -118.1910898, 33.7667197 ] } },
{ "type": "Feature", "properties": { "id": "Garvey", "formatted_address": "El Monte, CA 91733, United States", "articles": [ "N6CFXR53IRHEDNWYAZCNHPUYGM" ] }, "geometry": { "type": "Point", "coordinates": [ -118.0307069, 34.0632415 ] } },
{ "type": "Feature", "properties": { "id": "between Garfield Ave . & Alhambra Ave", "formatted_address": "1230 S Garfield Ave, Alhambra, CA 91801, United States", "articles": [ "N6CFXR53IRHEDNWYAZCNHPUYGM" ] }, "geometry": { "type": "Point", "coordinates": [ -118.1228344, 34.0795961 ] } },
{ "type": "Feature", "properties": { "id": "Arcadia Masonic Hall", "formatted_address": "50 W Duarte Rd, Arcadia, CA 91007, United States", "articles": [ "N6CFXR53IRHEDNWYAZCNHPUYGM" ] }, "geometry": { "type": "Point", "coordinates": [ -118.0336111, 34.1286111 ] } },
{ "type": "Feature", "properties": { "id": "50 W Duarte Rd .", "formatted_address": "50 W Duarte Rd, Arcadia, CA 91007, USA", "articles": [ "N6CFXR53IRHEDNWYAZCNHPUYGM" ] }, "geometry": { "type": "Point", "coordinates": [ -118.0335207, 34.1285337 ] } },
{ "type": "Feature", "properties": { "id": "street", "formatted_address": "1351 3rd Street Promenade, Santa Monica, CA 90401, United States", "articles": [ "N6CFXR53IRHEDNWYAZCNHPUYGM" ] }, "geometry": { "type": "Point", "coordinates": [ -118.4967894, 34.0164092 ] } },
{ "type": "Feature", "properties": { "id": "Los Angeles LGBT Center", "formatted_address": "McDonald\/Wright Building, 1625 Schrader Blvd, Los Angeles, CA 90028, United States", "articles": [ "N6CFXR53IRHEDNWYAZCNHPUYGM" ] }, "geometry": { "type": "Point", "coordinates": [ -118.3326226, 34.100385 ] } },
{ "type": "Feature", "properties": { "id": "Museum of Contemporary Art", "formatted_address": "250 S Grand Ave, Los Angeles, CA 90012, United States", "articles": [ "N6CFXR53IRHEDNWYAZCNHPUYGM" ] }, "geometry": { "type": "Point", "coordinates": [ -118.2503598, 34.0533437 ] } },
{ "type": "Feature", "properties": { "id": "250 S . Grand Ave .", "formatted_address": "250 S Grand Ave, Los Angeles, CA 90012, USA", "articles": [ "N6CFXR53IRHEDNWYAZCNHPUYGM" ] }, "geometry": { "type": "Point", "coordinates": [ -118.2503629, 34.053345 ] } },
{ "type": "Feature", "properties": { "id": "Museum of Contemporary Art ( MOCA", "formatted_address": "152 N Central Ave, Los Angeles, CA 90012, United States", "articles": [ "N6CFXR53IRHEDNWYAZCNHPUYGM" ] }, "geometry": { "type": "Point", "coordinates": [ -118.2384189, 34.0507666 ] } },
{ "type": "Feature", "properties": { "id": "Grand Ave", "formatted_address": "N Grand Ave, Los Angeles, CA 90012, USA", "articles": [ "N6CFXR53IRHEDNWYAZCNHPUYGM" ] }, "geometry": { "type": "Point", "coordinates": [ -118.245427, 34.059194 ] } },
{ "type": "Feature", "properties": { "id": "Geffen Contemporary at MOCA in Little Tokyo", "formatted_address": "152 N Central Ave, Los Angeles, CA 90012, United States", "articles": [ "N6CFXR53IRHEDNWYAZCNHPUYGM" ] }, "geometry": { "type": "Point", "coordinates": [ -118.2384189, 34.0507666 ] } },
{ "type": "Feature", "properties": { "id": "North Hollywood Amelia Earhart Regional Library", "formatted_address": "5211 Tujunga Ave, North Hollywood, CA 91601, United States", "articles": [ "N6CFXR53IRHEDNWYAZCNHPUYGM" ] }, "geometry": { "type": "Point", "coordinates": [ -118.3794181, 34.1655946 ] } },
{ "type": "Feature", "properties": { "id": "Beverly O ' Neill Theater", "formatted_address": "300 E Ocean Blvd, Long Beach, CA 90802, United States", "articles": [ "N6CFXR53IRHEDNWYAZCNHPUYGM" ] }, "geometry": { "type": "Point", "coordinates": [ -118.1889589, 33.7649717 ] } },
{ "type": "Feature", "properties": { "id": "300 E . Ocean Blvd", "formatted_address": "300 E Ocean Blvd, Long Beach, CA 90802, USA", "articles": [ "N6CFXR53IRHEDNWYAZCNHPUYGM" ] }, "geometry": { "type": "Point", "coordinates": [ -118.1893341, 33.765203500000013 ] } },
{ "type": "Feature", "properties": { "id": "Long Beach Opera", "formatted_address": "3029 E South St, Long Beach, CA 90805, United States", "articles": [ "N6CFXR53IRHEDNWYAZCNHPUYGM" ] }, "geometry": { "type": "Point", "coordinates": [ -118.1557998, 33.8603834 ] } },
{ "type": "Feature", "properties": { "id": "Chicano", "formatted_address": "4837 E 3rd St, Los Angeles, CA 90022, United States", "articles": [ "N6CFXR53IRHEDNWYAZCNHPUYGM" ] }, "geometry": { "type": "Point", "coordinates": [ -118.1598392, 34.0339925 ] } },
{ "type": "Feature", "properties": { "id": "Musica", "formatted_address": "10908 Main St, El Monte, CA 91731, United States", "articles": [ "N6CFXR53IRHEDNWYAZCNHPUYGM" ] }, "geometry": { "type": "Point", "coordinates": [ -118.0373695, 34.0746314 ] } },
{ "type": "Feature", "properties": { "id": "655 W . Jefferson Blvd .", "formatted_address": "655 W Jefferson Blvd, Los Angeles, CA 90007, USA", "articles": [ "N6CFXR53IRHEDNWYAZCNHPUYGM" ] }, "geometry": { "type": "Point", "coordinates": [ -118.2812894, 34.0237129 ] } },
{ "type": "Feature", "properties": { "id": "JANM", "formatted_address": "100 N Central Ave, Los Angeles, CA 90012, United States", "articles": [ "N6CFXR53IRHEDNWYAZCNHPUYGM" ] }, "geometry": { "type": "Point", "coordinates": [ -118.2385887, 34.0496239 ] } },
{ "type": "Feature", "properties": { "id": "Del Mar station", "formatted_address": "Pasadena, CA 91105, United States", "articles": [ "N6CFXR53IRHEDNWYAZCNHPUYGM" ] }, "geometry": { "type": "Point", "coordinates": [ -118.1482813, 34.1419831 ] } },
{ "type": "Feature", "properties": { "id": "Gold Line", "formatted_address": "203 N Ave 58, Los Angeles, CA 90042, United States", "articles": [ "N6CFXR53IRHEDNWYAZCNHPUYGM" ] }, "geometry": { "type": "Point", "coordinates": [ -118.192604, 34.111179 ] } },
{ "type": "Feature", "properties": { "id": "Willowbrook \/ Rosa Parks station", "formatted_address": "Willowbrook, CA 90059, United States", "articles": [ "N6CFXR53IRHEDNWYAZCNHPUYGM" ] }, "geometry": { "type": "Point", "coordinates": [ -118.2374676, 33.9278501 ] } },
{ "type": "Feature", "properties": { "id": "North Hollywood station", "formatted_address": "Los Angeles, CA 91601, United States", "articles": [ "N6CFXR53IRHEDNWYAZCNHPUYGM" ] }, "geometry": { "type": "Point", "coordinates": [ -118.376608, 34.1688745 ] } },
{ "type": "Feature", "properties": { "id": "North Hollywood", "formatted_address": "North Hollywood, Los Angeles, CA, USA", "articles": [ "N6CFXR53IRHEDNWYAZCNHPUYGM" ] }, "geometry": { "type": "Point", "coordinates": [ -118.3740371, 34.1729044 ] } },
{ "type": "Feature", "properties": { "id": "Wilshire \/ Western station", "formatted_address": "S Western Ave, Los Angeles, CA 90005, United States", "articles": [ "N6CFXR53IRHEDNWYAZCNHPUYGM" ] }, "geometry": { "type": "Point", "coordinates": [ -118.3088621, 34.062128 ] } },
{ "type": "Feature", "properties": { "id": "Purple Line", "formatted_address": "651 S Westlake Ave, Los Angeles, CA 90057, United States", "articles": [ "N6CFXR53IRHEDNWYAZCNHPUYGM" ] }, "geometry": { "type": "Point", "coordinates": [ -118.2754731, 34.0567208 ] } },
{ "type": "Feature", "properties": { "id": "Koreatown", "formatted_address": "Koreatown, Los Angeles, CA, USA", "articles": [ "N6CFXR53IRHEDNWYAZCNHPUYGM" ] }, "geometry": { "type": "Point", "coordinates": [ -118.3053732, 34.0617342 ] } },
{ "type": "Feature", "properties": { "id": "Culver City station", "formatted_address": "8817 Washington Blvd, Culver City, CA 90232, United States", "articles": [ "N6CFXR53IRHEDNWYAZCNHPUYGM" ] }, "geometry": { "type": "Point", "coordinates": [ -118.3888647, 34.0278848 ] } },
{ "type": "Feature", "properties": { "id": "Expo", "formatted_address": "700 Exposition Park Dr, Los Angeles, CA 90037, United States", "articles": [ "N6CFXR53IRHEDNWYAZCNHPUYGM" ] }, "geometry": { "type": "Point", "coordinates": [ -118.2861984, 34.0149382 ] } },
{ "type": "Feature", "properties": { "id": "3612", "formatted_address": "3612 Sunset Blvd, Los Angeles, CA 90026, United States", "articles": [ "KIQ5K5TQFREH5C3K4W5FEYWGJI" ] }, "geometry": { "type": "Point", "coordinates": [ -118.2773553, 34.0899914 ] } },
{ "type": "Feature", "properties": { "id": "6th St . , Koreatown .", "formatted_address": "3465 W 6th St, Los Angeles, CA 90020, United States", "articles": [ "KIQ5K5TQFREH5C3K4W5FEYWGJI" ] }, "geometry": { "type": "Point", "coordinates": [ -118.2974209, 34.0637212 ] } },
{ "type": "Feature", "properties": { "id": "Formosa Cafe", "formatted_address": "7156 Santa Monica Blvd, West Hollywood, CA 90046, United States", "articles": [ "KIQ5K5TQFREH5C3K4W5FEYWGJI" ] }, "geometry": { "type": "Point", "coordinates": [ -118.3460438, 34.0904935 ] } },
{ "type": "Feature", "properties": { "id": "Formosa", "formatted_address": "13373 Perris Blvd suite c-203, Moreno Valley, CA 92553, United States", "articles": [ "KIQ5K5TQFREH5C3K4W5FEYWGJI" ] }, "geometry": { "type": "Point", "coordinates": [ -117.2266584, 33.9269572 ] } },
{ "type": "Feature", "properties": { "id": "7156 Santa Monica Blvd . , West Hollywood .", "formatted_address": "7156 Santa Monica Blvd, West Hollywood, CA 90046, USA", "articles": [ "KIQ5K5TQFREH5C3K4W5FEYWGJI" ] }, "geometry": { "type": "Point", "coordinates": [ -118.3460579, 34.0904137 ] } },
{ "type": "Feature", "properties": { "id": "N . Vermont Ave . , Los Feliz .", "formatted_address": "N Vermont Ave, Los Angeles, CA, USA", "articles": [ "KIQ5K5TQFREH5C3K4W5FEYWGJI" ] }, "geometry": { "type": "Point", "coordinates": [ -118.2918021, 34.1052255 ] } },
{ "type": "Feature", "properties": { "id": "101 Wilshire Blvd . , Santa Monica .", "formatted_address": "101 Wilshire Blvd, Santa Monica, CA 90401, USA", "articles": [ "KIQ5K5TQFREH5C3K4W5FEYWGJI" ] }, "geometry": { "type": "Point", "coordinates": [ -118.5014962, 34.017845 ] } },
{ "type": "Feature", "properties": { "id": "Jumbo ' s Clown Room", "formatted_address": "5153 Hollywood Blvd, Los Angeles, CA 90027, United States", "articles": [ "KIQ5K5TQFREH5C3K4W5FEYWGJI" ] }, "geometry": { "type": "Point", "coordinates": [ -118.3024192, 34.1020277 ] } },
{ "type": "Feature", "properties": { "id": "Thai Town", "formatted_address": "Thai Town, Los Angeles, CA 90027, USA", "articles": [ "KIQ5K5TQFREH5C3K4W5FEYWGJI" ] }, "geometry": { "type": "Point", "coordinates": [ -118.3048616, 34.1018533 ] } },
{ "type": "Feature", "properties": { "id": "5153 Hollywood Blvd . , Thai Town .", "formatted_address": "5153 Hollywood Blvd, Los Angeles, CA 90027, USA", "articles": [ "KIQ5K5TQFREH5C3K4W5FEYWGJI" ] }, "geometry": { "type": "Point", "coordinates": [ -118.3024264, 34.1020305 ] } },
{ "type": "Feature", "properties": { "id": "10433", "formatted_address": "10433 Wilshire Blvd, Los Angeles, CA 90024, United States", "articles": [ "KIQ5K5TQFREH5C3K4W5FEYWGJI" ] }, "geometry": { "type": "Point", "coordinates": [ -118.4307632, 34.0662804 ] } },
{ "type": "Feature", "properties": { "id": "Blvd", "formatted_address": "9500 Wilshire Blvd, Beverly Hills, CA 90212, United States", "articles": [ "KIQ5K5TQFREH5C3K4W5FEYWGJI" ] }, "geometry": { "type": "Point", "coordinates": [ -118.4006554, 34.0666524 ] } },
{ "type": "Feature", "properties": { "id": "Death &", "formatted_address": "810 E 3rd St, Los Angeles, CA 90013, United States", "articles": [ "KIQ5K5TQFREH5C3K4W5FEYWGJI" ] }, "geometry": { "type": "Point", "coordinates": [ -118.2357132, 34.0456383 ] } },
{ "type": "Feature", "properties": { "id": "810 E . 3rd St . , downtown L . A .", "formatted_address": "Los Angeles, CA, USA", "articles": [ "KIQ5K5TQFREH5C3K4W5FEYWGJI" ] }, "geometry": { "type": "Point", "coordinates": [ -118.2436849, 34.0522342 ] } },
{ "type": "Feature", "properties": { "id": "Los Feliz ' s Big Bar", "formatted_address": "1927 Hillhurst Ave, Los Angeles, CA 90027, United States", "articles": [ "KIQ5K5TQFREH5C3K4W5FEYWGJI" ] }, "geometry": { "type": "Point", "coordinates": [ -118.2876177, 34.10587 ] } },
{ "type": "Feature", "properties": { "id": "Hillhurst Ave . , Los Feliz .", "formatted_address": "Hillhurst Ave, Los Angeles, CA 90027, USA", "articles": [ "KIQ5K5TQFREH5C3K4W5FEYWGJI" ] }, "geometry": { "type": "Point", "coordinates": [ -118.2874407, 34.1063553 ] } },
{ "type": "Feature", "properties": { "id": "Genever", "formatted_address": "3123 Beverly Blvd, Los Angeles, CA 90057, United States", "articles": [ "KIQ5K5TQFREH5C3K4W5FEYWGJI" ] }, "geometry": { "type": "Point", "coordinates": [ -118.2827833, 34.0722167 ] } },
{ "type": "Feature", "properties": { "id": "3123 Beverly Blvd .", "formatted_address": "3123 Beverly Blvd, Los Angeles, CA 90057, USA", "articles": [ "KIQ5K5TQFREH5C3K4W5FEYWGJI" ] }, "geometry": { "type": "Point", "coordinates": [ -118.2828236, 34.072277 ] } },
{ "type": "Feature", "properties": { "id": "Filipinotown .", "formatted_address": "Historic Filipinotown, Los Angeles, CA, USA", "articles": [ "KIQ5K5TQFREH5C3K4W5FEYWGJI" ] }, "geometry": { "type": "Point", "coordinates": [ -118.2680383, 34.0702694 ] } },
{ "type": "Feature", "properties": { "id": "217 Broadway , Santa Monica .", "formatted_address": "217 Broadway, Santa Monica, CA 90401, USA", "articles": [ "KIQ5K5TQFREH5C3K4W5FEYWGJI" ] }, "geometry": { "type": "Point", "coordinates": [ -118.4952072, 34.0140049 ] } },
{ "type": "Feature", "properties": { "id": "Severance Wine Bar", "formatted_address": "7276 Melrose Ave, Los Angeles, CA 90046, United States", "articles": [ "KIQ5K5TQFREH5C3K4W5FEYWGJI" ] }, "geometry": { "type": "Point", "coordinates": [ -118.3483179, 34.0833499 ] } },
{ "type": "Feature", "properties": { "id": "Melrose Ave . , Fairfax .", "formatted_address": "Melrose Ave, Los Angeles, CA, USA", "articles": [ "KIQ5K5TQFREH5C3K4W5FEYWGJI" ] }, "geometry": { "type": "Point", "coordinates": [ -118.3553302, 34.0836835 ] } },
{ "type": "Feature", "properties": { "id": "Argyle Ave . , Hollywood .", "formatted_address": "Argyle Ave, Los Angeles, CA, USA", "articles": [ "KIQ5K5TQFREH5C3K4W5FEYWGJI" ] }, "geometry": { "type": "Point", "coordinates": [ -118.3251962, 34.1042373 ] } },
{ "type": "Feature", "properties": { "id": "Pacifique", "formatted_address": "631 N La Cienega Blvd, West Hollywood, CA 90069, United States", "articles": [ "KIQ5K5TQFREH5C3K4W5FEYWGJI" ] }, "geometry": { "type": "Point", "coordinates": [ -118.3768298, 34.0828843 ] } },
{ "type": "Feature", "properties": { "id": "631 N . La Cienega Blvd . , West Hollywood .", "formatted_address": "631 N La Cienega Blvd, West Hollywood, CA 90069, USA", "articles": [ "KIQ5K5TQFREH5C3K4W5FEYWGJI" ] }, "geometry": { "type": "Point", "coordinates": [ -118.3768298, 34.0828843 ] } },
{ "type": "Feature", "properties": { "id": "Cheap", "formatted_address": "1000 S Etiwanda Ave, Ontario, CA 91761, United States", "articles": [ "KIQ5K5TQFREH5C3K4W5FEYWGJI" ] },